[
  {
    "company_name": "ARKAS",
    "id_port": 10444,
    "port_name": "Casablanca",
    "country_code": "ma",
    "lon": "-7.62451171875",
    "lat": "33.578500091422"
  },
  {
    "company_name": "ARKAS",
    "id_port": 3190,
    "port_name": "Barcelona",
    "country_code": "es",
    "lon": "2.16666666667",
    "lat": "41.35"
  },
  {
    "company_name": "ARKAS",
    "id_port": 8955,
    "port_name": "Cagliari",
    "country_code": "it",
    "lon": "9.11666666667",
    "lat": "39.2166666667"
  },
  {
    "company_name": "ARKAS",
    "id_port": 8534,
    "port_name": "Ashdod",
    "country_code": "il",
    "lon": "34.666292317675",
    "lat": "31.8166666667"
  },
  {
    "company_name": "ARKAS",
    "id_port": 8540,
    "port_name": "Haifa",
    "country_code": "il",
    "lon": "34.989013671875",
    "lat": "32.796915345518"
  },
  {
    "company_name": "ARKAS",
    "id_port": 10413,
    "port_name": "Beirut",
    "country_code": "lb",
    "lon": "35.486267089844",
    "lat": "33.890880725099"
  },
  {
    "company_name": "ARKAS",
    "id_port": 11978,
    "port_name": "Constanta",
    "country_code": "ro",
    "lon": "28.664263407423",
    "lat": "44.171564927617"
  },
  {
    "company_name": "ARKAS",
    "id_port": 9216,
    "port_name": "Genova",
    "country_code": "it",
    "lon": "8.9152623494433",
    "lat": "44.414715832572"
  },
  {
    "company_name": "ARKAS",
    "id_port": 12491,
    "port_name": "Gemlik",
    "country_code": "tr",
    "lon": "29.153371175097",
    "lat": "40.436529274414"
  },
  {
    "company_name": "ARKAS",
    "id_port": 11950,
    "port_name": "Doha",
    "country_code": "qa",
    "lon": "51.522503153516",
    "lat": "25.29450847041"
  },
  {
    "company_name": "ARKAS",
    "id_port": 3506,
    "port_name": "Las Palmas",
    "country_code": "es",
    "lon": "-15.4302978515625",
    "lat": "28.1288741820008"
  },
  {
    "company_name": "ARKAS",
    "id_port": 10487,
    "port_name": "Marsaxlokk",
    "country_code": "mt",
    "lon": "14.5333333333",
    "lat": "35.8166666667"
  },
  {
    "company_name": "ARKAS",
    "id_port": 22690,
    "port_name": "Benghazi",
    "country_code": "ly",
    "lon": "20.075405883789",
    "lat": "32.118611621968"
  },
  {
    "company_name": "ARKAS",
    "id_port": 12540,
    "port_name": "Iskenderun",
    "country_code": "tr",
    "lon": "36.168383280469",
    "lat": "36.589398165892"
  },
  {
    "company_name": "ARKAS",
    "id_port": 12622,
    "port_name": "Mersin",
    "country_code": "tr",
    "lon": "34.6166666667",
    "lat": "36.793231581975"
  },
  {
    "company_name": "ARKAS",
    "id_port": 12541,
    "port_name": "Istanbul",
    "country_code": "tr",
    "lon": "28.973220825195",
    "lat": "41.006784452657"
  },
  {
    "company_name": "ARKAS",
    "id_port": 9274,
    "port_name": "Livorno",
    "country_code": "it",
    "lon": "10.30259043379",
    "lat": "43.550995316569"
  },
  {
    "company_name": "ARKAS",
    "id_port": 9696,
    "port_name": "La Spezia",
    "country_code": "it",
    "lon": "9.8218475341796",
    "lat": "44.098086480833"
  },
  {
    "company_name": "ARKAS",
    "id_port": 3027,
    "port_name": "Port Said",
    "country_code": "eg",
    "lon": "32.2860717773437",
    "lat": "31.2653126215176"
  },
  {
    "company_name": "ARKAS",
    "id_port": 12304,
    "port_name": "Sfax",
    "country_code": "tn",
    "lon": "10.77197265625",
    "lat": "34.740104583926"
  },
  {
    "company_name": "ARKAS",
    "id_port": 12038,
    "port_name": "Novorossiysk",
    "country_code": "ru",
    "lon": "37.781982421875",
    "lat": "44.741618624531"
  },
  {
    "company_name": "ARKAS",
    "id_port": 3012,
    "port_name": "Alexandria",
    "country_code": "eg",
    "lon": "29.895505778028",
    "lat": "31.19919276224"
  },
  {
    "company_name": "ARKAS",
    "id_port": 12307,
    "port_name": "Tunis",
    "country_code": "tn",
    "lon": "10.202278137207",
    "lat": "36.818354664715"
  },
  {
    "company_name": "ARKAS",
    "id_port": 3916,
    "port_name": "Valencia",
    "country_code": "es",
    "lon": "-0.33027648925781",
    "lat": "39.451070047087"
  },
  {
    "company_name": "ARKAS",
    "id_port": 544,
    "port_name": "Varna",
    "country_code": "bg",
    "lon": "27.921660359667",
    "lat": "43.206506712446"
  },
  {
    "company_name": "ARKAS",
    "id_port": 8114,
    "port_name": "Thessaloniki",
    "country_code": "gr",
    "lon": "22.908426920606",
    "lat": "40.638544031727"
  },
  {
    "company_name": "ARKAS",
    "id_port": 3014,
    "port_name": "El Dekheila",
    "country_code": "eg",
    "lon": "29.8166666667",
    "lat": "31.1333333333"
  },
  {
    "company_name": "ARKAS",
    "id_port": 9207,
    "port_name": "Gioia Tauro",
    "country_code": "it",
    "lon": "15.893133544922",
    "lat": "38.424726878542"
  },
  {
    "company_name": "ARKAS",
    "id_port": 12543,
    "port_name": "Izmir",
    "country_code": "tr",
    "lon": "27.051086425781",
    "lat": "38.373800706398"
  },
  {
    "company_name": "ARKAS",
    "id_port": 21243,
    "port_name": "Oran",
    "country_code": "dz",
    "lon": "-0.649999999999998",
    "lat": "35.7166666667"
  },
  {
    "company_name": "ARKAS",
    "id_port": 12303,
    "port_name": "Rades",
    "country_code": "tn",
    "lon": "10.288795471191",
    "lat": "36.775358814218"
  },
  {
    "company_name": "ARKAS",
    "id_port": 9609,
    "port_name": "Salerno",
    "country_code": "it",
    "lon": "14.766822814941",
    "lat": "40.676301324617"
  },
  {
    "company_name": "ARKAS",
    "id_port": 8083,
    "port_name": "Piraeus",
    "country_code": "gr",
    "lon": "23.638139851855",
    "lat": "37.950270725876"
  },
  {
    "company_name": "ARKAS",
    "id_port": 7884,
    "port_name": "Poti",
    "country_code": "ge",
    "lon": "41.67197265625",
    "lat": "42.178127650683"
  },
  {
    "company_name": "ARKAS",
    "id_port": 22712,
    "port_name": "Tangier",
    "country_code": "ma",
    "lon": "-5.7980346679688",
    "lat": "35.764077586903"
  },
  {
    "company_name": "ARKAS",
    "id_port": 12305,
    "port_name": "Sousse",
    "country_code": "tn",
    "lon": "10.645193481445",
    "lat": "35.818337038528"
  },
  {
    "company_name": "ARKAS",
    "id_port": 12489,
    "port_name": "Gebze",
    "country_code": "tr",
    "lon": "29.427223205566",
    "lat": "40.770439373793"
  },
  {
    "company_name": "ARKAS",
    "id_port": 815,
    "port_name": "Famagusta",
    "country_code": "cy",
    "lon": "33.9422607421875",
    "lat": "35.1273535727257"
  },
  {
    "company_name": "ARKAS",
    "id_port": 22745,
    "port_name": "Malta",
    "country_code": "mt",
    "lon": "14.3426513671875",
    "lat": "35.9463834895204"
  },
  {
    "company_name": "ARKAS",
    "id_port": 22694,
    "port_name": "Misurata",
    "country_code": "ly",
    "lon": "15.126800537109",
    "lat": "32.400479161327"
  },
  {
    "company_name": "ARKAS",
    "id_port": 9793,
    "port_name": "Vado Ligure",
    "country_code": "it",
    "lon": "8.4378433227539",
    "lat": "44.269233877388"
  },
  {
    "company_name": "ARKAS",
    "id_port": 3834,
    "port_name": "Santa Cruz de Tenerife",
    "country_code": "es",
    "lon": "-16.248779296875",
    "lat": "28.4840886914597"
  },
  {
    "company_name": "ARKAS",
    "id_port": 22697,
    "port_name": "Tripoli",
    "country_code": "ly",
    "lon": "13.191573079394",
    "lat": "32.893081475303"
  },
  {
    "company_name": "ARKAS",
    "id_port": 304,
    "port_name": "Odessa",
    "country_code": "ua",
    "lon": "30.730773925781",
    "lat": "46.5"
  },
  {
    "company_name": "ARKAS",
    "id_port": 22701,
    "port_name": "Agadir",
    "country_code": "ma",
    "lon": "-9.556429036455",
    "lat": "30.435613308181"
  },
  {
    "company_name": "ARKAS",
    "id_port": 12346,
    "port_name": "Antalya",
    "country_code": "tr",
    "lon": "30.7666666667",
    "lat": "36.8666666667"
  },
  {
    "company_name": "ARKAS",
    "id_port": 27654,
    "port_name": "Alger",
    "country_code": "dz",
    "lon": "3.065035883589",
    "lat": "36.786014235242"
  },
  {
    "company_name": "ARKAS",
    "id_port": 8844,
    "port_name": "Ancona",
    "country_code": "it",
    "lon": "13.511860148145",
    "lat": "43.620880848271"
  },
  {
    "company_name": "ARKAS",
    "id_port": 3204,
    "port_name": "Bilbao",
    "country_code": "es",
    "lon": "-3.046989440918",
    "lat": "43.339977491756"
  },
  {
    "company_name": "ARKAS",
    "id_port": 8016,
    "port_name": "Lavrion",
    "country_code": "gr",
    "lon": "24.059800211622",
    "lat": "37.704346193264"
  },
  {
    "company_name": "ARKAS",
    "id_port": 31099,
    "port_name": "Khoms",
    "country_code": "ly",
    "lon": "14.245880126953",
    "lat": "32.672930032815"
  },
  {
    "company_name": "ARKAS",
    "id_port": 12712,
    "port_name": "Samsun",
    "country_code": "tr",
    "lon": "36.3333333",
    "lat": "41.3166666"
  },
  {
    "company_name": "ARKAS",
    "id_port": 9557,
    "port_name": "Ravenna",
    "country_code": "it",
    "lon": "12.22297668457",
    "lat": "44.424174864907"
  },
  {
    "company_name": "ARKAS",
    "id_port": 9788,
    "port_name": "Venice",
    "country_code": "it",
    "lon": "12.307740208398",
    "lat": "45.435742477187"
  },
  {
    "company_name": "ARKAS",
    "id_port": 12520,
    "port_name": "Haydarpasa",
    "country_code": "tr",
    "lon": "29.042946370409",
    "lat": "40.982685393946"
  },
  {
    "company_name": "ARKAS",
    "id_port": 3745,
    "port_name": "Sagunto",
    "country_code": "es",
    "lon": "-0.22078653971403",
    "lat": "39.65317205105"
  },
  {
    "company_name": "ARKAS",
    "id_port": 3251,
    "port_name": "Castellon De La Plana",
    "country_code": "es",
    "lon": "0.0094258626302235",
    "lat": "39.9666666667"
  },
  {
    "company_name": "ARKAS",
    "id_port": 3832,
    "port_name": "Tarragona",
    "country_code": "es",
    "lon": "1.2015604654982",
    "lat": "41.098858364981"
  },
  {
    "company_name": "ARKAS",
    "id_port": 3120,
    "port_name": "Alicante",
    "country_code": "es",
    "lon": "-0.48470662434863",
    "lat": "38.341950668714"
  },
  {
    "company_name": "ARKAS",
    "id_port": 3123,
    "port_name": "Algeciras",
    "country_code": "es",
    "lon": "-5.4381398518847",
    "lat": "36.141096889493"
  },
  {
    "company_name": "ARKAS",
    "id_port": 11859,
    "port_name": "Leixoes",
    "country_code": "pt",
    "lon": "-8.7059783935547",
    "lat": "41.20106607302"
  },
  {
    "company_name": "ARKAS",
    "id_port": 11920,
    "port_name": "Setubal",
    "country_code": "pt",
    "lon": "-8.9180399576856",
    "lat": "38.519342879541"
  },
  {
    "company_name": "ARKAS",
    "id_port": 12129,
    "port_name": "Koper",
    "country_code": "si",
    "lon": "13.734519449903",
    "lat": "45.548652962696"
  },
  {
    "company_name": "ARKAS",
    "id_port": 9388,
    "port_name": "Napoli",
    "country_code": "it",
    "lon": "14.260143534376",
    "lat": "40.843073732839"
  },
  {
    "company_name": "STINNES",
    "id_port": 3392,
    "port_name": "El Ferrol",
    "country_code": "es",
    "lon": "-8.2666666666699",
    "lat": "43.468909199871"
  },
  {
    "company_name": "STINNES",
    "id_port": 19958,
    "port_name": "Durban",
    "country_code": "za",
    "lon": "31.0166666667",
    "lat": "-29.8666666667"
  },
  {
    "company_name": "STINNES",
    "id_port": 1241,
    "port_name": "Bremerhaven",
    "country_code": "de",
    "lon": "8.5755157470703",
    "lat": "53.542777688366"
  },
  {
    "company_name": "STINNES",
    "id_port": 1650,
    "port_name": "Hamburg",
    "country_code": "de",
    "lon": "9.9694061279297",
    "lat": "53.547719720805"
  },
  {
    "company_name": "STINNES",
    "id_port": 19987,
    "port_name": "Port Elizabeth",
    "country_code": "za",
    "lon": "25.6063842773437",
    "lat": "-33.9265642390802"
  },
  {
    "company_name": "STINNES",
    "id_port": 22782,
    "port_name": "Tampico",
    "country_code": "mx",
    "lon": "-97.805992635058",
    "lat": "22.280010324351"
  },
  {
    "company_name": "STINNES",
    "id_port": 11175,
    "port_name": "Rotterdam",
    "country_code": "nl",
    "lon": "4.4424468994141",
    "lat": "51.904382682993"
  },
  {
    "company_name": "STINNES",
    "id_port": 23283,
    "port_name": "San Juan",
    "country_code": "pr",
    "lon": "-66.209106445313",
    "lat": "18.457534617161"
  },
  {
    "company_name": "STINNES",
    "id_port": 22787,
    "port_name": "Veracruz",
    "country_code": "mx",
    "lon": "-96.1333333333",
    "lat": "19.2"
  },
  {
    "company_name": "STINNES",
    "id_port": 22754,
    "port_name": "Altamira",
    "country_code": "mx",
    "lon": "-97.864151000977",
    "lat": "22.482055485937"
  },
  {
    "company_name": "STINNES",
    "id_port": 21919,
    "port_name": "Puerto Cortes",
    "country_code": "hn",
    "lon": "-87.948303222656",
    "lat": "15.860487837563"
  },
  {
    "company_name": "STINNES",
    "id_port": 21223,
    "port_name": "Rio Haina",
    "country_code": "do",
    "lon": "-69.987030029297",
    "lat": "18.42626514258"
  },
  {
    "company_name": "STINNES",
    "id_port": 518,
    "port_name": "Antwerpen",
    "country_code": "be",
    "lon": "4.3828959147469",
    "lat": "51.20236700208"
  },
  {
    "company_name": "STINNES",
    "id_port": 6438,
    "port_name": "Felixstowe",
    "country_code": "gb",
    "lon": "1.3444519042969",
    "lat": "51.957926722873"
  },
  {
    "company_name": "STINNES",
    "id_port": 1228,
    "port_name": "Bremen",
    "country_code": "de",
    "lon": "8.7954139709473",
    "lat": "53.07532734181"
  },
  {
    "company_name": "STINNES",
    "id_port": 19956,
    "port_name": "Cape Town",
    "country_code": "za",
    "lon": "18.430981636047",
    "lat": "-33.945701864914"
  },
  {
    "company_name": "AUSTRAL ASIA",
    "id_port": 12219,
    "port_name": "Bangkok",
    "country_code": "th",
    "lon": "100.505676269531",
    "lat": "13.6967839613795"
  },
  {
    "company_name": "AUSTRAL ASIA",
    "id_port": 567,
    "port_name": "Dalian",
    "country_code": "cn",
    "lon": "121.65",
    "lat": "38.9166666667"
  },
  {
    "company_name": "AUSTRAL ASIA",
    "id_port": 12774,
    "port_name": "Keelung",
    "country_code": "tw",
    "lon": "121.739501953125",
    "lat": "25.1481622950363"
  },
  {
    "company_name": "AUSTRAL ASIA",
    "id_port": 10292,
    "port_name": "Kobe",
    "country_code": "jp",
    "lon": "135.183333333",
    "lat": "34.6666666667"
  },
  {
    "company_name": "AUSTRAL ASIA",
    "id_port": 23149,
    "port_name": "Lae",
    "country_code": "pg",
    "lon": "146.966666667",
    "lat": "-6.71666666667"
  },
  {
    "company_name": "AUSTRAL ASIA",
    "id_port": 27613,
    "port_name": "Melbourne",
    "country_code": "au",
    "lon": "144.94416351318",
    "lat": "-37.839716509514"
  },
  {
    "company_name": "AUSTRAL ASIA",
    "id_port": 8157,
    "port_name": "Hong Kong",
    "country_code": "hk",
    "lon": "114.17009353638",
    "lat": "22.294786854677"
  },
  {
    "company_name": "AUSTRAL ASIA",
    "id_port": 8353,
    "port_name": "Jakarta",
    "country_code": "id",
    "lon": "106.82421976758",
    "lat": "-6.1203019939939"
  },
  {
    "company_name": "AUSTRAL ASIA",
    "id_port": 12776,
    "port_name": "Kaohsiung",
    "country_code": "tw",
    "lon": "120.27197265625",
    "lat": "22.642017983609"
  },
  {
    "company_name": "AUSTRAL ASIA",
    "id_port": 8488,
    "port_name": "Semarang, Java",
    "country_code": "id",
    "lon": "110.407104492187",
    "lat": "-6.97610172262996"
  },
  {
    "company_name": "AUSTRAL ASIA",
    "id_port": 8492,
    "port_name": "Surabaya",
    "country_code": "id",
    "lon": "112.733333333",
    "lat": "-7.20000000000002"
  },
  {
    "company_name": "AUSTRAL ASIA",
    "id_port": 513,
    "port_name": "Sydney",
    "country_code": "au",
    "lon": "151.182861328125",
    "lat": "-33.8696440161399"
  },
  {
    "company_name": "AUSTRAL ASIA",
    "id_port": 10588,
    "port_name": "Port Kelang",
    "country_code": "my",
    "lon": "101.38264668749",
    "lat": "3.003428517042"
  },
  {
    "company_name": "AUSTRAL ASIA",
    "id_port": 12117,
    "port_name": "Singapore",
    "country_code": "sg",
    "lon": "103.83245951368",
    "lat": "1.2392074134918"
  },
  {
    "company_name": "AUSTRAL ASIA",
    "id_port": 739,
    "port_name": "Qingdao",
    "country_code": "cn",
    "lon": "120.38533121778",
    "lat": "36.064987770375"
  },
  {
    "company_name": "AUSTRAL ASIA",
    "id_port": 20165,
    "port_name": "Adelaide",
    "country_code": "au",
    "lon": "138.488159179687",
    "lat": "-34.8568117900151"
  },
  {
    "company_name": "AUSTRAL ASIA",
    "id_port": 10319,
    "port_name": "Yokohama",
    "country_code": "jp",
    "lon": "139.6345194502",
    "lat": "35.457550958643"
  },
  {
    "company_name": "AUSTRAL ASIA",
    "id_port": 20220,
    "port_name": "Newcastle",
    "country_code": "au",
    "lon": "151.75018717481",
    "lat": "-32.9333333333"
  },
  {
    "company_name": "AUSTRAL ASIA",
    "id_port": 20229,
    "port_name": "Port Kembla",
    "country_code": "au",
    "lon": "150.89725341797",
    "lat": "-34.473459694821"
  },
  {
    "company_name": "AUSTRAL ASIA",
    "id_port": 20258,
    "port_name": "Townsville",
    "country_code": "au",
    "lon": "146.84326171875",
    "lat": "-19.2933834460535"
  },
  {
    "company_name": "AUSTRAL ASIA",
    "id_port": 753,
    "port_name": "Xingang",
    "country_code": "cn",
    "lon": "117.74082183838",
    "lat": "38.979722222222"
  },
  {
    "company_name": "AUSTRAL ASIA",
    "id_port": 20175,
    "port_name": "Brisbane",
    "country_code": "au",
    "lon": "153.18314615919",
    "lat": "-27.466570653812"
  },
  {
    "company_name": "AUSTRAL ASIA",
    "id_port": 23155,
    "port_name": "Port Moresby",
    "country_code": "pg",
    "lon": "147.14538574219",
    "lat": "-9.4350307517441"
  },
  {
    "company_name": "AUSTRAL ASIA",
    "id_port": 12274,
    "port_name": "Siracha",
    "country_code": "th",
    "lon": "100.92693532275",
    "lat": "13.174839364722"
  },
  {
    "company_name": "AUSTRAL ASIA",
    "id_port": 706,
    "port_name": "Shanghai",
    "country_code": "cn",
    "lon": "121.49711608887",
    "lat": "31.400089849043"
  },
  {
    "company_name": "AUSTRAL ASIA",
    "id_port": 11602,
    "port_name": "Manila",
    "country_code": "ph",
    "lon": "120.97197265625",
    "lat": "14.631173820818"
  },
  {
    "company_name": "SEACORP",
    "id_port": 20197,
    "port_name": "Fremantle",
    "country_code": "au",
    "lon": "115.751953125",
    "lat": "-32.03743200183"
  },
  {
    "company_name": "SEACORP",
    "id_port": 27613,
    "port_name": "Melbourne",
    "country_code": "au",
    "lon": "144.94416351318",
    "lat": "-37.839716509514"
  },
  {
    "company_name": "SEACORP",
    "id_port": 513,
    "port_name": "Sydney",
    "country_code": "au",
    "lon": "151.182861328125",
    "lat": "-33.8696440161399"
  },
  {
    "company_name": "SEACORP",
    "id_port": 20165,
    "port_name": "Adelaide",
    "country_code": "au",
    "lon": "138.488159179687",
    "lat": "-34.8568117900151"
  },
  {
    "company_name": "SEACORP",
    "id_port": 20226,
    "port_name": "Port Hedland",
    "country_code": "au",
    "lon": "118.54248046875",
    "lat": "-20.324428975769"
  },
  {
    "company_name": "SEACORP",
    "id_port": 20176,
    "port_name": "Broome",
    "country_code": "au",
    "lon": "122.233333333",
    "lat": "-17.914405985178"
  },
  {
    "company_name": "SEACORP",
    "id_port": 20192,
    "port_name": "Dampier",
    "country_code": "au",
    "lon": "116.72746582031",
    "lat": "-20.661526903455"
  },
  {
    "company_name": "SEACORP",
    "id_port": 20264,
    "port_name": "Wyndham",
    "country_code": "au",
    "lon": "128.12197265625",
    "lat": "-15.4666666667"
  },
  {
    "company_name": "SEACORP",
    "id_port": 20193,
    "port_name": "Darwin",
    "country_code": "au",
    "lon": "130.84716796875",
    "lat": "-12.384024490993"
  },
  {
    "company_name": "SEACORP",
    "id_port": 20175,
    "port_name": "Brisbane",
    "country_code": "au",
    "lon": "153.18314615919",
    "lat": "-27.466570653812"
  },
  {
    "company_name": "SASCO",
    "id_port": 10375,
    "port_name": "Pusan",
    "country_code": "kr",
    "lon": "129.03579703711",
    "lat": "35.098203098396"
  },
  {
    "company_name": "SASCO",
    "id_port": 23337,
    "port_name": "Vladivostok",
    "country_code": "ru",
    "lon": "131.883333333333",
    "lat": "43.11666666667"
  },
  {
    "company_name": "SASCO",
    "id_port": 26988,
    "port_name": "Korsakov",
    "country_code": "ru",
    "lon": "142.81951904297",
    "lat": "46.635682037181"
  },
  {
    "company_name": "SASCO",
    "id_port": 26980,
    "port_name": "Kholmsk",
    "country_code": "ru",
    "lon": "142.08618164062",
    "lat": "47.010264638506"
  },
  {
    "company_name": "SASCO",
    "id_port": 26995,
    "port_name": "Magadan",
    "country_code": "ru",
    "lon": "150.61981201172",
    "lat": "59.57447197231"
  },
  {
    "company_name": "SASCO",
    "id_port": 27011,
    "port_name": "Petropavlovsk-Kamchatsky",
    "country_code": "ru",
    "lon": "158.73321533203",
    "lat": "52.939382786588"
  },
  {
    "company_name": "SASCO",
    "id_port": 23335,
    "port_name": "Vanino",
    "country_code": "ru",
    "lon": "140.267944335937",
    "lat": "49.0591566508625"
  },
  {
    "company_name": "SASCO",
    "id_port": 26965,
    "port_name": "De Kastri",
    "country_code": "ru",
    "lon": "140.76782226562",
    "lat": "51.394980136647"
  },
  {
    "company_name": "SASCO",
    "id_port": 27036,
    "port_name": "Uglegorsk",
    "country_code": "ru",
    "lon": "142.09357096387",
    "lat": "49.073864172655"
  },
  {
    "company_name": "CCNI",
    "id_port": 20672,
    "port_name": "Arica",
    "country_code": "cl",
    "lon": "-70.3179931640627",
    "lat": "-18.4903447249268"
  },
  {
    "company_name": "CCNI",
    "id_port": 3190,
    "port_name": "Barcelona",
    "country_code": "es",
    "lon": "2.16666666667",
    "lat": "41.35"
  },
  {
    "company_name": "CCNI",
    "id_port": 4394,
    "port_name": "Dunkerque",
    "country_code": "fr",
    "lon": "2.3761367797852",
    "lat": "51.044779683718"
  },
  {
    "company_name": "CCNI",
    "id_port": 21246,
    "port_name": "Esmeraldas",
    "country_code": "ec",
    "lon": "-79.69482421875",
    "lat": "0.9419828685357"
  },
  {
    "company_name": "CCNI",
    "id_port": 23081,
    "port_name": "Colon",
    "country_code": "pa",
    "lon": "-79.888458251953",
    "lat": "9.3737347270139"
  },
  {
    "company_name": "CCNI",
    "id_port": 12774,
    "port_name": "Keelung",
    "country_code": "tw",
    "lon": "121.739501953125",
    "lat": "25.1481622950363"
  },
  {
    "company_name": "CCNI",
    "id_port": 15873,
    "port_name": "Long Beach",
    "country_code": "us",
    "lon": "-118.19332071973",
    "lat": "33.738580742306"
  },
  {
    "company_name": "CCNI",
    "id_port": 1650,
    "port_name": "Hamburg",
    "country_code": "de",
    "lon": "9.9694061279297",
    "lat": "53.547719720805"
  },
  {
    "company_name": "CCNI",
    "id_port": 22314,
    "port_name": "Kingston",
    "country_code": "jm",
    "lon": "-76.826466878222",
    "lat": "17.989864216254"
  },
  {
    "company_name": "CCNI",
    "id_port": 8157,
    "port_name": "Hong Kong",
    "country_code": "hk",
    "lon": "114.17009353638",
    "lat": "22.294786854677"
  },
  {
    "company_name": "CCNI",
    "id_port": 9274,
    "port_name": "Livorno",
    "country_code": "it",
    "lon": "10.30259043379",
    "lat": "43.550995316569"
  },
  {
    "company_name": "CCNI",
    "id_port": 27618,
    "port_name": "Santos",
    "country_code": "br",
    "lon": "-46.320786539747",
    "lat": "-23.973773587662"
  },
  {
    "company_name": "CCNI",
    "id_port": 20705,
    "port_name": "San Vicente",
    "country_code": "cl",
    "lon": "-73.1333333332997",
    "lat": "-36.7166666667"
  },
  {
    "company_name": "CCNI",
    "id_port": 17960,
    "port_name": "San Francisco",
    "country_code": "us",
    "lon": "-122.41014353468",
    "lat": "37.808137897501"
  },
  {
    "company_name": "CCNI",
    "id_port": 16326,
    "port_name": "Miami",
    "country_code": "us",
    "lon": "-80.189669291212",
    "lat": "25.775941908234"
  },
  {
    "company_name": "CCNI",
    "id_port": 10375,
    "port_name": "Pusan",
    "country_code": "kr",
    "lon": "129.03579703711",
    "lat": "35.098203098396"
  },
  {
    "company_name": "CCNI",
    "id_port": 21007,
    "port_name": "Puerto Limon",
    "country_code": "cr",
    "lon": "-83.036041259766",
    "lat": "9.9968196677133"
  },
  {
    "company_name": "CCNI",
    "id_port": 11175,
    "port_name": "Rotterdam",
    "country_code": "nl",
    "lon": "4.4424468994141",
    "lat": "51.904382682993"
  },
  {
    "company_name": "CCNI",
    "id_port": 23283,
    "port_name": "San Juan",
    "country_code": "pr",
    "lon": "-66.209106445313",
    "lat": "18.457534617161"
  },
  {
    "company_name": "CCNI",
    "id_port": 22787,
    "port_name": "Veracruz",
    "country_code": "mx",
    "lon": "-96.1333333333",
    "lat": "19.2"
  },
  {
    "company_name": "CCNI",
    "id_port": 3903,
    "port_name": "Vigo",
    "country_code": "es",
    "lon": "-8.7044321695996",
    "lat": "42.242992226908"
  },
  {
    "company_name": "CCNI",
    "id_port": 19784,
    "port_name": "Maracaibo",
    "country_code": "ve",
    "lon": "-71.6033935546873",
    "lat": "10.6592038723493"
  },
  {
    "company_name": "CCNI",
    "id_port": 674,
    "port_name": "Ningbo",
    "country_code": "cn",
    "lon": "121.55939846039",
    "lat": "29.871876716293"
  },
  {
    "company_name": "CCNI",
    "id_port": 22754,
    "port_name": "Altamira",
    "country_code": "mx",
    "lon": "-97.864151000977",
    "lat": "22.482055485937"
  },
  {
    "company_name": "CCNI",
    "id_port": 17204,
    "port_name": "Port Everglades",
    "country_code": "us",
    "lon": "-80.118827819824",
    "lat": "26.066611640665"
  },
  {
    "company_name": "CCNI",
    "id_port": 3916,
    "port_name": "Valencia",
    "country_code": "es",
    "lon": "-0.33027648925781",
    "lat": "39.451070047087"
  },
  {
    "company_name": "CCNI",
    "id_port": 23580,
    "port_name": "Acajutla",
    "country_code": "sv",
    "lon": "-89.83039855957",
    "lat": "13.569943755446"
  },
  {
    "company_name": "CCNI",
    "id_port": 20628,
    "port_name": "Vancouver",
    "country_code": "ca",
    "lon": "-123.14884185791",
    "lat": "49.308213623065"
  },
  {
    "company_name": "CCNI",
    "id_port": 27619,
    "port_name": "Valparaiso",
    "country_code": "cl",
    "lon": "-71.639099121094",
    "lat": "-33.050376241023"
  },
  {
    "company_name": "CCNI",
    "id_port": 10319,
    "port_name": "Yokohama",
    "country_code": "jp",
    "lon": "139.6345194502",
    "lat": "35.457550958643"
  },
  {
    "company_name": "CCNI",
    "id_port": 20671,
    "port_name": "Antofagasta",
    "country_code": "cl",
    "lon": "-70.3976440429689",
    "lat": "-23.6570062238631"
  },
  {
    "company_name": "CCNI",
    "id_port": 23078,
    "port_name": "Balboa",
    "country_code": "pa",
    "lon": "-79.5547485351561",
    "lat": "8.93961720816279"
  },
  {
    "company_name": "CCNI",
    "id_port": 20991,
    "port_name": "Barranquilla",
    "country_code": "co",
    "lon": "-74.7647094726565",
    "lat": "10.9750182526022"
  },
  {
    "company_name": "CCNI",
    "id_port": 20992,
    "port_name": "Buenaventura",
    "country_code": "co",
    "lon": "-77.0443725585938",
    "lat": "3.88838328160015"
  },
  {
    "company_name": "CCNI",
    "id_port": 23082,
    "port_name": "Cristobal",
    "country_code": "pa",
    "lon": "-79.8980712890625",
    "lat": "9.3411977307061"
  },
  {
    "company_name": "CCNI",
    "id_port": 22762,
    "port_name": "Ensenada",
    "country_code": "mx",
    "lon": "-116.61163330078",
    "lat": "31.845121314129"
  },
  {
    "company_name": "CCNI",
    "id_port": 9207,
    "port_name": "Gioia Tauro",
    "country_code": "it",
    "lon": "15.893133544922",
    "lat": "38.424726878542"
  },
  {
    "company_name": "CCNI",
    "id_port": 23097,
    "port_name": "Callao",
    "country_code": "pe",
    "lon": "-77.121276855469",
    "lat": "-12.053688235941"
  },
  {
    "company_name": "CCNI",
    "id_port": 21247,
    "port_name": "Guayaquil",
    "country_code": "ec",
    "lon": "-79.8815917968749",
    "lat": "-2.2404676319387"
  },
  {
    "company_name": "CCNI",
    "id_port": 20691,
    "port_name": "Iquique",
    "country_code": "cl",
    "lon": "-70.144958496094",
    "lat": "-20.223949691328"
  },
  {
    "company_name": "CCNI",
    "id_port": 23109,
    "port_name": "Ilo",
    "country_code": "pe",
    "lon": "-71.3232421875",
    "lat": "-17.618035946383"
  },
  {
    "company_name": "CCNI",
    "id_port": 21249,
    "port_name": "Manta",
    "country_code": "ec",
    "lon": "-80.7163",
    "lat": "-0.949899999999998"
  },
  {
    "company_name": "CCNI",
    "id_port": 23124,
    "port_name": "Paita",
    "country_code": "pe",
    "lon": "-81.1175537109373",
    "lat": "-5.09567302876743"
  },
  {
    "company_name": "CCNI",
    "id_port": 16569,
    "port_name": "New Orleans",
    "country_code": "us",
    "lon": "-90.063061777784",
    "lat": "29.95"
  },
  {
    "company_name": "CCNI",
    "id_port": 20692,
    "port_name": "Lirquen",
    "country_code": "cl",
    "lon": "-72.962951660156",
    "lat": "-36.694498235049"
  },
  {
    "company_name": "CCNI",
    "id_port": 20695,
    "port_name": "Mejillones",
    "country_code": "cl",
    "lon": "-70.438842773438",
    "lat": "-23.103785739146"
  },
  {
    "company_name": "CCNI",
    "id_port": 16967,
    "port_name": "Oakland",
    "country_code": "us",
    "lon": "-122.29210357666",
    "lat": "37.831435218783"
  },
  {
    "company_name": "CCNI",
    "id_port": 21893,
    "port_name": "Puerto Quetzal",
    "country_code": "gt",
    "lon": "-90.7855224609378",
    "lat": "13.9342544814989"
  },
  {
    "company_name": "CCNI",
    "id_port": 20506,
    "port_name": "Montreal",
    "country_code": "ca",
    "lon": "-73.559285227491",
    "lat": "45.514195857806"
  },
  {
    "company_name": "CCNI",
    "id_port": 9609,
    "port_name": "Salerno",
    "country_code": "it",
    "lon": "14.766822814941",
    "lat": "40.676301324617"
  },
  {
    "company_name": "CCNI",
    "id_port": 20696,
    "port_name": "Punta Arenas",
    "country_code": "cl",
    "lon": "-70.941286328125",
    "lat": "-53.101751761946"
  },
  {
    "company_name": "CCNI",
    "id_port": 20699,
    "port_name": "Puerto Montt",
    "country_code": "cl",
    "lon": "-72.942486962891",
    "lat": "-41.466968053824"
  },
  {
    "company_name": "CCNI",
    "id_port": 21223,
    "port_name": "Rio Haina",
    "country_code": "do",
    "lon": "-69.987030029297",
    "lat": "18.42626514258"
  },
  {
    "company_name": "CCNI",
    "id_port": 793,
    "port_name": "Yantian",
    "country_code": "cn",
    "lon": "114.266666667",
    "lat": "22.6"
  },
  {
    "company_name": "CCNI",
    "id_port": 22851,
    "port_name": "Tanjung Pelepas",
    "country_code": "my",
    "lon": "103.5483638525",
    "lat": "1.355896533307"
  },
  {
    "company_name": "CCNI",
    "id_port": 13180,
    "port_name": "Baltimore",
    "country_code": "us",
    "lon": "-76.595649719238",
    "lat": "39.281254757575"
  },
  {
    "company_name": "CCNI",
    "id_port": 20994,
    "port_name": "Cartagena",
    "country_code": "co",
    "lon": "-75.5200195312502",
    "lat": "10.4025285764627"
  },
  {
    "company_name": "CCNI",
    "id_port": 23085,
    "port_name": "Panama",
    "country_code": "pa",
    "lon": "-79.5330555556001",
    "lat": "8.95055555555999"
  },
  {
    "company_name": "CCNI",
    "id_port": 16959,
    "port_name": "New York",
    "country_code": "us",
    "lon": "-74.017681121826",
    "lat": "40.705476282155"
  },
  {
    "company_name": "CCNI",
    "id_port": 9793,
    "port_name": "Vado Ligure",
    "country_code": "it",
    "lon": "8.4378433227539",
    "lat": "44.269233877388"
  },
  {
    "company_name": "CCNI",
    "id_port": 27529,
    "port_name": "Punta Patache",
    "country_code": "cl",
    "lon": "-70.182037353516",
    "lat": "-20.802723475692"
  },
  {
    "company_name": "CCNI",
    "id_port": 20151,
    "port_name": "San Lorenzo",
    "country_code": "ar",
    "lon": "-60.7324218750001",
    "lat": "-32.718615461532"
  },
  {
    "company_name": "CCNI",
    "id_port": 3250,
    "port_name": "Cartagena",
    "country_code": "es",
    "lon": "-0.99014282226562",
    "lat": "37.585035484849"
  },
  {
    "company_name": "CCNI",
    "id_port": 17852,
    "port_name": "San Antonio",
    "country_code": "us",
    "lon": "-96.700186157227",
    "lat": "28.349033334001"
  },
  {
    "company_name": "CCNI",
    "id_port": 23084,
    "port_name": "Manzanillo",
    "country_code": "pa",
    "lon": "-79.602127075196",
    "lat": "9.6115949009685"
  },
  {
    "company_name": "CCNI",
    "id_port": 518,
    "port_name": "Antwerpen",
    "country_code": "be",
    "lon": "4.3828959147469",
    "lat": "51.20236700208"
  },
  {
    "company_name": "CCNI",
    "id_port": 13792,
    "port_name": "Charleston",
    "country_code": "us",
    "lon": "-79.928183491991",
    "lat": "32.776117047443"
  },
  {
    "company_name": "CCNI",
    "id_port": 33126,
    "port_name": "Hong Kong",
    "country_code": "cn",
    "lon": "114.16960008984",
    "lat": "22.231712895889"
  },
  {
    "company_name": "CCNI",
    "id_port": 564,
    "port_name": "Chiwan",
    "country_code": "cn",
    "lon": "113.87500762939",
    "lat": "22.47855975894"
  },
  {
    "company_name": "CCNI",
    "id_port": 27079,
    "port_name": "Shekou",
    "country_code": "cn",
    "lon": "113.90213012695",
    "lat": "22.519474062394"
  },
  {
    "company_name": "CCNI",
    "id_port": 706,
    "port_name": "Shanghai",
    "country_code": "cn",
    "lon": "121.49711608887",
    "lat": "31.400089849043"
  },
  {
    "company_name": "CCNI",
    "id_port": 19792,
    "port_name": "Puerto Cabello",
    "country_code": "ve",
    "lon": "-68.008426920606",
    "lat": "10.478607009683"
  },
  {
    "company_name": "CCNI",
    "id_port": 20704,
    "port_name": "San Antonio",
    "country_code": "cl",
    "lon": "-71.608614095019",
    "lat": "-33.567314947104"
  },
  {
    "company_name": "CCNI",
    "id_port": 22896,
    "port_name": "Corinto",
    "country_code": "ni",
    "lon": "-87.176170349121",
    "lat": "12.484735094709"
  },
  {
    "company_name": "CCNI",
    "id_port": 19716,
    "port_name": "Montevideo",
    "country_code": "uy",
    "lon": "-56.196067301466",
    "lat": "-34.906757565188"
  },
  {
    "company_name": "CCNI",
    "id_port": 21314,
    "port_name": "Marin",
    "country_code": "es",
    "lon": "-8.7149047851562",
    "lat": "42.384054577565"
  },
  {
    "company_name": "CCNI",
    "id_port": 22768,
    "port_name": "Manzanillo",
    "country_code": "mx",
    "lon": "-104.40307617188",
    "lat": "19.103448203448"
  },
  {
    "company_name": "CCNI",
    "id_port": 22765,
    "port_name": "Lazaro Cardenas",
    "country_code": "mx",
    "lon": "-102.15843200684",
    "lat": "17.93071693429"
  },
  {
    "company_name": "CCNI",
    "id_port": 22752,
    "port_name": "Acapulco",
    "country_code": "mx",
    "lon": "-99.917907714844",
    "lat": "16.848363080597"
  },
  {
    "company_name": "CCNI",
    "id_port": 15332,
    "port_name": "Houston",
    "country_code": "us",
    "lon": "-95.2871564229",
    "lat": "29.745752378204"
  },
  {
    "company_name": "CCNI",
    "id_port": 20619,
    "port_name": "Toronto",
    "country_code": "ca",
    "lon": "-79.363861083984",
    "lat": "43.650208289835"
  },
  {
    "company_name": "CCNI",
    "id_port": 778,
    "port_name": "Xiamen",
    "country_code": "cn",
    "lon": "118.07684898376",
    "lat": "24.478517973495"
  },
  {
    "company_name": "BULCON",
    "id_port": 3190,
    "port_name": "Barcelona",
    "country_code": "es",
    "lon": "2.16666666667",
    "lat": "41.35"
  },
  {
    "company_name": "BULCON",
    "id_port": 522,
    "port_name": "Burgas",
    "country_code": "bg",
    "lon": "27.491573079394",
    "lat": "42.437839152548"
  },
  {
    "company_name": "BULCON",
    "id_port": 10413,
    "port_name": "Beirut",
    "country_code": "lb",
    "lon": "35.486267089844",
    "lat": "33.890880725099"
  },
  {
    "company_name": "BULCON",
    "id_port": 11978,
    "port_name": "Constanta",
    "country_code": "ro",
    "lon": "28.664263407423",
    "lat": "44.171564927617"
  },
  {
    "company_name": "BULCON",
    "id_port": 9216,
    "port_name": "Genova",
    "country_code": "it",
    "lon": "8.9152623494433",
    "lat": "44.414715832572"
  },
  {
    "company_name": "BULCON",
    "id_port": 27485,
    "port_name": "Mariupol",
    "country_code": "ua",
    "lon": "37.5666666667",
    "lat": "47.1"
  },
  {
    "company_name": "BULCON",
    "id_port": 6678,
    "port_name": "Hull",
    "country_code": "gb",
    "lon": "-0.340576171875",
    "lat": "53.707476912266"
  },
  {
    "company_name": "BULCON",
    "id_port": 4932,
    "port_name": "Marseille",
    "country_code": "fr",
    "lon": "5.3551483154297",
    "lat": "43.292341867034"
  },
  {
    "company_name": "BULCON",
    "id_port": 1650,
    "port_name": "Hamburg",
    "country_code": "de",
    "lon": "9.9694061279297",
    "lat": "53.547719720805"
  },
  {
    "company_name": "BULCON",
    "id_port": 12622,
    "port_name": "Mersin",
    "country_code": "tr",
    "lon": "34.6166666667",
    "lat": "36.793231581975"
  },
  {
    "company_name": "BULCON",
    "id_port": 12541,
    "port_name": "Istanbul",
    "country_code": "tr",
    "lon": "28.973220825195",
    "lat": "41.006784452657"
  },
  {
    "company_name": "BULCON",
    "id_port": 21373,
    "port_name": "Rauma",
    "country_code": "fi",
    "lon": "21.505177243517",
    "lat": "61.129313714066"
  },
  {
    "company_name": "BULCON",
    "id_port": 23008,
    "port_name": "Saint Petersburg",
    "country_code": "ru",
    "lon": "30.211922200487",
    "lat": "59.956718066669"
  },
  {
    "company_name": "BULCON",
    "id_port": 4683,
    "port_name": "Le Havre",
    "country_code": "fr",
    "lon": "0.10705362955764",
    "lat": "49.485997674824"
  },
  {
    "company_name": "BULCON",
    "id_port": 11175,
    "port_name": "Rotterdam",
    "country_code": "nl",
    "lon": "4.4424468994141",
    "lat": "51.904382682993"
  },
  {
    "company_name": "BULCON",
    "id_port": 3916,
    "port_name": "Valencia",
    "country_code": "es",
    "lon": "-0.33027648925781",
    "lat": "39.451070047087"
  },
  {
    "company_name": "BULCON",
    "id_port": 544,
    "port_name": "Varna",
    "country_code": "bg",
    "lon": "27.921660359667",
    "lat": "43.206506712446"
  },
  {
    "company_name": "BULCON",
    "id_port": 8114,
    "port_name": "Thessaloniki",
    "country_code": "gr",
    "lon": "22.908426920606",
    "lat": "40.638544031727"
  },
  {
    "company_name": "BULCON",
    "id_port": 21153,
    "port_name": "Fredericia",
    "country_code": "dk",
    "lon": "9.7846984863281",
    "lat": "55.540513758054"
  },
  {
    "company_name": "BULCON",
    "id_port": 21355,
    "port_name": "Kotka",
    "country_code": "fi",
    "lon": "26.939849853516",
    "lat": "60.44658831218"
  },
  {
    "company_name": "BULCON",
    "id_port": 12543,
    "port_name": "Izmir",
    "country_code": "tr",
    "lon": "27.051086425781",
    "lat": "38.373800706398"
  },
  {
    "company_name": "BULCON",
    "id_port": 23411,
    "port_name": "Malmo",
    "country_code": "se",
    "lon": "12.897863388062",
    "lat": "55.570344549098"
  },
  {
    "company_name": "BULCON",
    "id_port": 8083,
    "port_name": "Piraeus",
    "country_code": "gr",
    "lon": "23.638139851855",
    "lat": "37.950270725876"
  },
  {
    "company_name": "BULCON",
    "id_port": 21382,
    "port_name": "Turku",
    "country_code": "fi",
    "lon": "22.217788696289",
    "lat": "60.434824814441"
  },
  {
    "company_name": "BULCON",
    "id_port": 22957,
    "port_name": "Fredrikstad",
    "country_code": "no",
    "lon": "10.909423828125",
    "lat": "59.1491339931363"
  },
  {
    "company_name": "BULCON",
    "id_port": 304,
    "port_name": "Odessa",
    "country_code": "ua",
    "lon": "30.730773925781",
    "lat": "46.5"
  },
  {
    "company_name": "BULCON",
    "id_port": 12329,
    "port_name": "Ambarli",
    "country_code": "tr",
    "lon": "28.536079915365",
    "lat": "40.994736024512"
  },
  {
    "company_name": "BULCON",
    "id_port": 518,
    "port_name": "Antwerpen",
    "country_code": "be",
    "lon": "4.3828959147469",
    "lat": "51.20236700208"
  },
  {
    "company_name": "BULCON",
    "id_port": 6438,
    "port_name": "Felixstowe",
    "country_code": "gb",
    "lon": "1.3444519042969",
    "lat": "51.957926722873"
  },
  {
    "company_name": "SOFRANA",
    "id_port": 23149,
    "port_name": "Lae",
    "country_code": "pg",
    "lon": "146.966666667",
    "lat": "-6.71666666667"
  },
  {
    "company_name": "SOFRANA",
    "id_port": 27613,
    "port_name": "Melbourne",
    "country_code": "au",
    "lon": "144.94416351318",
    "lat": "-37.839716509514"
  },
  {
    "company_name": "SOFRANA",
    "id_port": 513,
    "port_name": "Sydney",
    "country_code": "au",
    "lon": "151.182861328125",
    "lat": "-33.8696440161399"
  },
  {
    "company_name": "SOFRANA",
    "id_port": 23156,
    "port_name": "Rabaul",
    "country_code": "pg",
    "lon": "152.177124023437",
    "lat": "-4.19161272884421"
  },
  {
    "company_name": "SOFRANA",
    "id_port": 19890,
    "port_name": "Apia",
    "country_code": "ws",
    "lon": "-171.76254679395",
    "lat": "-13.845339687765"
  },
  {
    "company_name": "SOFRANA",
    "id_port": 23027,
    "port_name": "Auckland",
    "country_code": "nz",
    "lon": "174.76807098389",
    "lat": "-36.846153687114"
  },
  {
    "company_name": "SOFRANA",
    "id_port": 23354,
    "port_name": "Honiara",
    "country_code": "sb",
    "lon": "159.9609375",
    "lat": "-9.43770885850718"
  },
  {
    "company_name": "SOFRANA",
    "id_port": 22873,
    "port_name": "Noumea",
    "country_code": "nc",
    "lon": "166.431884765625",
    "lat": "-22.3045576539983"
  },
  {
    "company_name": "SOFRANA",
    "id_port": 23042,
    "port_name": "Napier",
    "country_code": "nz",
    "lon": "176.86173502637",
    "lat": "-39.4666666667"
  },
  {
    "company_name": "SOFRANA",
    "id_port": 19884,
    "port_name": "Port Vila",
    "country_code": "vu",
    "lon": "168.31329345703",
    "lat": "-17.683489594843"
  },
  {
    "company_name": "SOFRANA",
    "id_port": 23054,
    "port_name": "Tauranga",
    "country_code": "nz",
    "lon": "176.20530598925",
    "lat": "-37.702172664159"
  },
  {
    "company_name": "SOFRANA",
    "id_port": 20158,
    "port_name": "Pago Pago",
    "country_code": "as",
    "lon": "-170.68333333",
    "lat": "-14.26666666"
  },
  {
    "company_name": "SOFRANA",
    "id_port": 20175,
    "port_name": "Brisbane",
    "country_code": "au",
    "lon": "153.18314615919",
    "lat": "-27.466570653812"
  },
  {
    "company_name": "SOFRANA",
    "id_port": 23155,
    "port_name": "Port Moresby",
    "country_code": "pg",
    "lon": "147.14538574219",
    "lat": "-9.4350307517441"
  },
  {
    "company_name": "SOFRANA",
    "id_port": 23040,
    "port_name": "Lyttelton",
    "country_code": "nz",
    "lon": "172.71941324904",
    "lat": "-43.601502851656"
  },
  {
    "company_name": "SAMSKIP",
    "id_port": 1241,
    "port_name": "Bremerhaven",
    "country_code": "de",
    "lon": "8.5755157470703",
    "lat": "53.542777688366"
  },
  {
    "company_name": "SAMSKIP",
    "id_port": 15873,
    "port_name": "Long Beach",
    "country_code": "us",
    "lon": "-118.19332071973",
    "lat": "33.738580742306"
  },
  {
    "company_name": "SAMSKIP",
    "id_port": 6724,
    "port_name": "Immingham",
    "country_code": "gb",
    "lon": "-0.17372131347656",
    "lat": "53.622415065347"
  },
  {
    "company_name": "SAMSKIP",
    "id_port": 21349,
    "port_name": "Helsinki",
    "country_code": "fi",
    "lon": "24.952559407519",
    "lat": "60.165983476538"
  },
  {
    "company_name": "SAMSKIP",
    "id_port": 1650,
    "port_name": "Hamburg",
    "country_code": "de",
    "lon": "9.9694061279297",
    "lat": "53.547719720805"
  },
  {
    "company_name": "SAMSKIP",
    "id_port": 17252,
    "port_name": "Philadelphia",
    "country_code": "us",
    "lon": "-75.188553492262",
    "lat": "39.885289752385"
  },
  {
    "company_name": "SAMSKIP",
    "id_port": 23008,
    "port_name": "Saint Petersburg",
    "country_code": "ru",
    "lon": "30.211922200487",
    "lat": "59.956718066669"
  },
  {
    "company_name": "SAMSKIP",
    "id_port": 16326,
    "port_name": "Miami",
    "country_code": "us",
    "lon": "-80.189669291212",
    "lat": "25.775941908234"
  },
  {
    "company_name": "SAMSKIP",
    "id_port": 16849,
    "port_name": "Norfolk",
    "country_code": "us",
    "lon": "-76.337453206347",
    "lat": "36.852747247875"
  },
  {
    "company_name": "SAMSKIP",
    "id_port": 11175,
    "port_name": "Rotterdam",
    "country_code": "nl",
    "lon": "4.4424468994141",
    "lat": "51.904382682993"
  },
  {
    "company_name": "SAMSKIP",
    "id_port": 14604,
    "port_name": "Everett",
    "country_code": "us",
    "lon": "-71.0833333333",
    "lat": "42.35"
  },
  {
    "company_name": "SAMSKIP",
    "id_port": 21399,
    "port_name": "Thorshavn",
    "country_code": "fo",
    "lon": "-6.76208496093753",
    "lat": "61.9853388767637"
  },
  {
    "company_name": "SAMSKIP",
    "id_port": 5892,
    "port_name": "Blyth",
    "country_code": "gb",
    "lon": "-1.494140625",
    "lat": "55.116064564056"
  },
  {
    "company_name": "SAMSKIP",
    "id_port": 23441,
    "port_name": "Solvesborg",
    "country_code": "se",
    "lon": "14.590530395508",
    "lat": "56.051376512171"
  },
  {
    "company_name": "SAMSKIP",
    "id_port": 23410,
    "port_name": "Lysekil",
    "country_code": "se",
    "lon": "11.419944763184",
    "lat": "58.227517659024"
  },
  {
    "company_name": "SAMSKIP",
    "id_port": 1307,
    "port_name": "Cuxhaven",
    "country_code": "de",
    "lon": "8.7025451660156",
    "lat": "53.86179318108"
  },
  {
    "company_name": "SAMSKIP",
    "id_port": 21140,
    "port_name": "Aarhus",
    "country_code": "dk",
    "lon": "10.213508605957",
    "lat": "56.156180944575"
  },
  {
    "company_name": "SAMSKIP",
    "id_port": 13434,
    "port_name": "Boston",
    "country_code": "us",
    "lon": "-71.0833333333",
    "lat": "42.35"
  },
  {
    "company_name": "SAMSKIP",
    "id_port": 27621,
    "port_name": "Halifax",
    "country_code": "ca",
    "lon": "-63.573875777831",
    "lat": "44.62581477586"
  },
  {
    "company_name": "SAMSKIP",
    "id_port": 22980,
    "port_name": "Larvik",
    "country_code": "no",
    "lon": "10.0167846679687",
    "lat": "58.9987211098348"
  },
  {
    "company_name": "SAMSKIP",
    "id_port": 23387,
    "port_name": "Halmstad",
    "country_code": "se",
    "lon": "12.859239578247",
    "lat": "56.673976295969"
  },
  {
    "company_name": "SAMSKIP",
    "id_port": 10432,
    "port_name": "Klaipeda",
    "country_code": "lt",
    "lon": "21.126022338867",
    "lat": "55.70355738665"
  },
  {
    "company_name": "SAMSKIP",
    "id_port": 22990,
    "port_name": "Moss",
    "country_code": "no",
    "lon": "10.6539916992187",
    "lat": "59.3756055603082"
  },
  {
    "company_name": "SAMSKIP",
    "id_port": 11054,
    "port_name": "Moerdijk",
    "country_code": "nl",
    "lon": "4.5826721191406",
    "lat": "51.688911085098"
  },
  {
    "company_name": "SAMSKIP",
    "id_port": 16967,
    "port_name": "Oakland",
    "country_code": "us",
    "lon": "-122.29210357666",
    "lat": "37.831435218783"
  },
  {
    "company_name": "SAMSKIP",
    "id_port": 27073,
    "port_name": "Riga",
    "country_code": "lv",
    "lon": "24.106063842773",
    "lat": "56.945598484318"
  },
  {
    "company_name": "SAMSKIP",
    "id_port": 22213,
    "port_name": "Reykjavik",
    "country_code": "is",
    "lon": "-21.951370239258",
    "lat": "64.128018521508"
  },
  {
    "company_name": "SAMSKIP",
    "id_port": 20506,
    "port_name": "Montreal",
    "country_code": "ca",
    "lon": "-73.559285227491",
    "lat": "45.514195857806"
  },
  {
    "company_name": "SAMSKIP",
    "id_port": 23464,
    "port_name": "Wallhamn",
    "country_code": "se",
    "lon": "11.699313354492",
    "lat": "58.003571168777"
  },
  {
    "company_name": "SAMSKIP",
    "id_port": 23458,
    "port_name": "Varberg",
    "country_code": "se",
    "lon": "12.242889404297",
    "lat": "57.106888934973"
  },
  {
    "company_name": "SAMSKIP",
    "id_port": 22957,
    "port_name": "Fredrikstad",
    "country_code": "no",
    "lon": "10.909423828125",
    "lat": "59.1491339931363"
  },
  {
    "company_name": "SAMSKIP",
    "id_port": 21398,
    "port_name": "Klaksvik",
    "country_code": "fo",
    "lon": "-6.58333333333001",
    "lat": "62.2333333332998"
  },
  {
    "company_name": "SAMSKIP",
    "id_port": 9327,
    "port_name": "Milano",
    "country_code": "it",
    "lon": "9.1881",
    "lat": "45.4637"
  },
  {
    "company_name": "SAMSKIP",
    "id_port": 16959,
    "port_name": "New York",
    "country_code": "us",
    "lon": "-74.017681121826",
    "lat": "40.705476282155"
  },
  {
    "company_name": "SAMSKIP",
    "id_port": 518,
    "port_name": "Antwerpen",
    "country_code": "be",
    "lon": "4.3828959147469",
    "lat": "51.20236700208"
  },
  {
    "company_name": "SAMSKIP",
    "id_port": 3204,
    "port_name": "Bilbao",
    "country_code": "es",
    "lon": "-3.046989440918",
    "lat": "43.339977491756"
  },
  {
    "company_name": "SAMSKIP",
    "id_port": 20581,
    "port_name": "Shelburne",
    "country_code": "ca",
    "lon": "-65.336380004883",
    "lat": "43.740335616226"
  },
  {
    "company_name": "SAMSKIP",
    "id_port": 22947,
    "port_name": "Brevik",
    "country_code": "no",
    "lon": "9.6988677978516",
    "lat": "59.052212633878"
  },
  {
    "company_name": "SAMSKIP",
    "id_port": 20385,
    "port_name": "Argentia",
    "country_code": "ca",
    "lon": "-53.993682861328",
    "lat": "47.275819751757"
  },
  {
    "company_name": "SAMSKIP",
    "id_port": 6438,
    "port_name": "Felixstowe",
    "country_code": "gb",
    "lon": "1.3444519042969",
    "lat": "51.957926722873"
  },
  {
    "company_name": "SAMSKIP",
    "id_port": 13792,
    "port_name": "Charleston",
    "country_code": "us",
    "lon": "-79.928183491991",
    "lat": "32.776117047443"
  },
  {
    "company_name": "SAMSKIP",
    "id_port": 21146,
    "port_name": "Copenhagen",
    "country_code": "dk",
    "lon": "12.578659057617",
    "lat": "55.671553383207"
  },
  {
    "company_name": "SAMSKIP",
    "id_port": 1228,
    "port_name": "Bremen",
    "country_code": "de",
    "lon": "8.7954139709473",
    "lat": "53.07532734181"
  },
  {
    "company_name": "SAMSKIP",
    "id_port": 22218,
    "port_name": "Vestmann Islandvestm",
    "country_code": "is",
    "lon": "-20.272521972656",
    "lat": "63.426128794765"
  },
  {
    "company_name": "SAMSKIP",
    "id_port": 27754,
    "port_name": "Grundartangi",
    "country_code": "is",
    "lon": "-21.789325968424",
    "lat": "64.351188894366"
  },
  {
    "company_name": "SAMSKIP",
    "id_port": 11862,
    "port_name": "Lisboa",
    "country_code": "pt",
    "lon": "-9.16136067708",
    "lat": "38.714523618067"
  },
  {
    "company_name": "SAMSKIP",
    "id_port": 15332,
    "port_name": "Houston",
    "country_code": "us",
    "lon": "-95.2871564229",
    "lat": "29.745752378204"
  },
  {
    "company_name": "SAMUDERA",
    "id_port": 8768,
    "port_name": "Bandar Abbas",
    "country_code": "ir",
    "lon": "56.2833333333",
    "lat": "27.1833333333"
  },
  {
    "company_name": "SAMUDERA",
    "id_port": 12219,
    "port_name": "Bangkok",
    "country_code": "th",
    "lon": "100.505676269531",
    "lat": "13.6967839613795"
  },
  {
    "company_name": "SAMUDERA",
    "id_port": 10416,
    "port_name": "Colombo",
    "country_code": "lk",
    "lon": "79.8486328124997",
    "lat": "6.93082874954599"
  },
  {
    "company_name": "SAMUDERA",
    "id_port": 506,
    "port_name": "Dubai",
    "country_code": "ae",
    "lon": "55.287453206347",
    "lat": "25.274738811131"
  },
  {
    "company_name": "SAMUDERA",
    "id_port": 8584,
    "port_name": "Cochin",
    "country_code": "in",
    "lon": "76.23951314287",
    "lat": "9.9578748682216"
  },
  {
    "company_name": "SAMUDERA",
    "id_port": 8305,
    "port_name": "Belawan",
    "country_code": "id",
    "lon": "98.703932698535",
    "lat": "3.7877867910579"
  },
  {
    "company_name": "SAMUDERA",
    "id_port": 549,
    "port_name": "Bahrain",
    "country_code": "bh",
    "lon": "50.6166666667",
    "lat": "26.20554475383"
  },
  {
    "company_name": "SAMUDERA",
    "id_port": 11950,
    "port_name": "Doha",
    "country_code": "qa",
    "lon": "51.522503153516",
    "lat": "25.29450847041"
  },
  {
    "company_name": "SAMUDERA",
    "id_port": 12774,
    "port_name": "Keelung",
    "country_code": "tw",
    "lon": "121.739501953125",
    "lat": "25.1481622950363"
  },
  {
    "company_name": "SAMUDERA",
    "id_port": 10403,
    "port_name": "Kuwait",
    "country_code": "kw",
    "lon": "47.968851725294",
    "lat": "29.375134275693"
  },
  {
    "company_name": "SAMUDERA",
    "id_port": 8617,
    "port_name": "Kandla",
    "country_code": "in",
    "lon": "70.221785481737",
    "lat": "23.007584513154"
  },
  {
    "company_name": "SAMUDERA",
    "id_port": 11764,
    "port_name": "Karachi",
    "country_code": "pk",
    "lon": "66.933707682325",
    "lat": "24.876483014725"
  },
  {
    "company_name": "SAMUDERA",
    "id_port": 8157,
    "port_name": "Hong Kong",
    "country_code": "hk",
    "lon": "114.17009353638",
    "lat": "22.294786854677"
  },
  {
    "company_name": "SAMUDERA",
    "id_port": 8353,
    "port_name": "Jakarta",
    "country_code": "id",
    "lon": "106.82421976758",
    "lat": "-6.1203019939939"
  },
  {
    "company_name": "SAMUDERA",
    "id_port": 12776,
    "port_name": "Kaohsiung",
    "country_code": "tw",
    "lon": "120.27197265625",
    "lat": "22.642017983609"
  },
  {
    "company_name": "SAMUDERA",
    "id_port": 8448,
    "port_name": "Pontianak, Kalimantan",
    "country_code": "id",
    "lon": "109.283333333",
    "lat": "-0.0166666666667"
  },
  {
    "company_name": "SAMUDERA",
    "id_port": 8488,
    "port_name": "Semarang, Java",
    "country_code": "id",
    "lon": "110.407104492187",
    "lat": "-6.97610172262996"
  },
  {
    "company_name": "SAMUDERA",
    "id_port": 8492,
    "port_name": "Surabaya",
    "country_code": "id",
    "lon": "112.733333333",
    "lat": "-7.20000000000002"
  },
  {
    "company_name": "SAMUDERA",
    "id_port": 10584,
    "port_name": "Penang",
    "country_code": "my",
    "lon": "100.41847737597",
    "lat": "5.2881401942309"
  },
  {
    "company_name": "SAMUDERA",
    "id_port": 12117,
    "port_name": "Singapore",
    "country_code": "sg",
    "lon": "103.83245951368",
    "lat": "1.2392074134918"
  },
  {
    "company_name": "SAMUDERA",
    "id_port": 8443,
    "port_name": "Palembang, Sumatra",
    "country_code": "id",
    "lon": "104.76373291016",
    "lat": "-2.9860761895411"
  },
  {
    "company_name": "SAMUDERA",
    "id_port": 10375,
    "port_name": "Pusan",
    "country_code": "kr",
    "lon": "129.03579703711",
    "lat": "35.098203098396"
  },
  {
    "company_name": "SAMUDERA",
    "id_port": 739,
    "port_name": "Qingdao",
    "country_code": "cn",
    "lon": "120.38533121778",
    "lat": "36.064987770375"
  },
  {
    "company_name": "SAMUDERA",
    "id_port": 21794,
    "port_name": "Tema",
    "country_code": "gh",
    "lon": "0.0166666666667",
    "lat": "5.63333333333"
  },
  {
    "company_name": "SAMUDERA",
    "id_port": 674,
    "port_name": "Ningbo",
    "country_code": "cn",
    "lon": "121.55939846039",
    "lat": "29.871876716293"
  },
  {
    "company_name": "SAMUDERA",
    "id_port": 12051,
    "port_name": "Dammam",
    "country_code": "sa",
    "lon": "50.103869628906",
    "lat": "26.450829276756"
  },
  {
    "company_name": "SAMUDERA",
    "id_port": 12248,
    "port_name": "Laem Chabang",
    "country_code": "th",
    "lon": "100.883333333",
    "lat": "13.0833333333"
  },
  {
    "company_name": "SAMUDERA",
    "id_port": 22887,
    "port_name": "Lagos",
    "country_code": "ng",
    "lon": "3.4067103068068",
    "lat": "6.4234900608013"
  },
  {
    "company_name": "SAMUDERA",
    "id_port": 8447,
    "port_name": "Panjang",
    "country_code": "id",
    "lon": "105.3",
    "lat": "-5.45"
  },
  {
    "company_name": "SAMUDERA",
    "id_port": 27398,
    "port_name": "Nhava Sheva",
    "country_code": "in",
    "lon": "72.9666666666598",
    "lat": "18.95"
  },
  {
    "company_name": "SAMUDERA",
    "id_port": 504,
    "port_name": "Abu Dhabi",
    "country_code": "ae",
    "lon": "54.3466186523437",
    "lat": "24.497793259718"
  },
  {
    "company_name": "SAMUDERA",
    "id_port": 8293,
    "port_name": "Bandung, Java",
    "country_code": "id",
    "lon": "103.2833333333",
    "lat": "0.5333333333"
  },
  {
    "company_name": "SAMUDERA",
    "id_port": 22804,
    "port_name": "Kota Kinabalu",
    "country_code": "my",
    "lon": "116.066666666667",
    "lat": "5.96666666666665"
  },
  {
    "company_name": "SAMUDERA",
    "id_port": 22811,
    "port_name": "Kuching",
    "country_code": "my",
    "lon": "110.429077148437",
    "lat": "1.5822588164338"
  },
  {
    "company_name": "SAMUDERA",
    "id_port": 10573,
    "port_name": "Muar",
    "country_code": "my",
    "lon": "102.55",
    "lat": "2.0333333"
  },
  {
    "company_name": "SAMUDERA",
    "id_port": 22140,
    "port_name": "Madras",
    "country_code": "in",
    "lon": "80.329322645444",
    "lat": "13.236493067065"
  },
  {
    "company_name": "SAMUDERA",
    "id_port": 11390,
    "port_name": "Muscat",
    "country_code": "om",
    "lon": "58.541947428419",
    "lat": "23.628634841567"
  },
  {
    "company_name": "SAMUDERA",
    "id_port": 22847,
    "port_name": "Tawau",
    "country_code": "my",
    "lon": "117.88330078125",
    "lat": "4.25029055597577"
  },
  {
    "company_name": "SAMUDERA",
    "id_port": 8676,
    "port_name": "Pipavav",
    "country_code": "in",
    "lon": "71.555493164062",
    "lat": "20.966666666666"
  },
  {
    "company_name": "SAMUDERA",
    "id_port": 514,
    "port_name": "Chittagong",
    "country_code": "bd",
    "lon": "91.838452148437",
    "lat": "22.331040428964"
  },
  {
    "company_name": "SAMUDERA",
    "id_port": 10519,
    "port_name": "Bintulu, Sarawak",
    "country_code": "my",
    "lon": "113.030090332031",
    "lat": "3.17508874056823"
  },
  {
    "company_name": "SAMUDERA",
    "id_port": 706,
    "port_name": "Shanghai",
    "country_code": "cn",
    "lon": "121.49711608887",
    "lat": "31.400089849043"
  },
  {
    "company_name": "SAMUDERA",
    "id_port": 10586,
    "port_name": "Pasir Gudang",
    "country_code": "my",
    "lon": "103.87990010246",
    "lat": "1.4487987548189"
  },
  {
    "company_name": "SAMUDERA",
    "id_port": 8580,
    "port_name": "Calcutta",
    "country_code": "in",
    "lon": "88.343320652734",
    "lat": "22.567577188109"
  },
  {
    "company_name": "SAMUDERA",
    "id_port": 21968,
    "port_name": "Jambi",
    "country_code": "id",
    "lon": "103.61171722412",
    "lat": "-1.5905983895672"
  },
  {
    "company_name": "SAMUDERA",
    "id_port": 11602,
    "port_name": "Manila",
    "country_code": "ph",
    "lon": "120.97197265625",
    "lat": "14.631173820818"
  },
  {
    "company_name": "SAMUDERA",
    "id_port": 50075,
    "port_name": "Yangon",
    "country_code": "mm",
    "lon": "96.167686816406",
    "lat": "16.774564930239"
  },
  {
    "company_name": "SAMUDERA",
    "id_port": 33937,
    "port_name": "Ho Chi Minh City",
    "country_code": "vn",
    "lon": "106.7530040741",
    "lat": "10.826167627573"
  },
  {
    "company_name": "SAMUDERA",
    "id_port": 778,
    "port_name": "Xiamen",
    "country_code": "cn",
    "lon": "118.07684898376",
    "lat": "24.478517973495"
  },
  {
    "company_name": "CCL",
    "id_port": 3190,
    "port_name": "Barcelona",
    "country_code": "es",
    "lon": "2.16666666667",
    "lat": "41.35"
  },
  {
    "company_name": "CCL",
    "id_port": 20322,
    "port_name": "Fortaleza",
    "country_code": "br",
    "lon": "-38.6141967773438",
    "lat": "-3.73094216279063"
  },
  {
    "company_name": "CCL",
    "id_port": 10413,
    "port_name": "Beirut",
    "country_code": "lb",
    "lon": "35.486267089844",
    "lat": "33.890880725099"
  },
  {
    "company_name": "CCL",
    "id_port": 12491,
    "port_name": "Gemlik",
    "country_code": "tr",
    "lon": "29.153371175097",
    "lat": "40.436529274414"
  },
  {
    "company_name": "CCL",
    "id_port": 23081,
    "port_name": "Colon",
    "country_code": "pa",
    "lon": "-79.888458251953",
    "lat": "9.3737347270139"
  },
  {
    "company_name": "CCL",
    "id_port": 19774,
    "port_name": "La Guaira",
    "country_code": "ve",
    "lon": "-66.9333333333002",
    "lat": "10.6"
  },
  {
    "company_name": "CCL",
    "id_port": 12217,
    "port_name": "Latakia",
    "country_code": "sy",
    "lon": "35.774917602539",
    "lat": "35.523415771237"
  },
  {
    "company_name": "CCL",
    "id_port": 22314,
    "port_name": "Kingston",
    "country_code": "jm",
    "lon": "-76.826466878222",
    "lat": "17.989864216254"
  },
  {
    "company_name": "CCL",
    "id_port": 21027,
    "port_name": "Havana",
    "country_code": "cu",
    "lon": "-82.396691894531",
    "lat": "23.137372285843"
  },
  {
    "company_name": "CCL",
    "id_port": 12622,
    "port_name": "Mersin",
    "country_code": "tr",
    "lon": "34.6166666667",
    "lat": "36.793231581975"
  },
  {
    "company_name": "CCL",
    "id_port": 12541,
    "port_name": "Istanbul",
    "country_code": "tr",
    "lon": "28.973220825195",
    "lat": "41.006784452657"
  },
  {
    "company_name": "CCL",
    "id_port": 9274,
    "port_name": "Livorno",
    "country_code": "it",
    "lon": "10.30259043379",
    "lat": "43.550995316569"
  },
  {
    "company_name": "CCL",
    "id_port": 27618,
    "port_name": "Santos",
    "country_code": "br",
    "lon": "-46.320786539747",
    "lat": "-23.973773587662"
  },
  {
    "company_name": "CCL",
    "id_port": 20344,
    "port_name": "Rio De Jan Eiro",
    "country_code": "br",
    "lon": "-43.2",
    "lat": "-22.9"
  },
  {
    "company_name": "CCL",
    "id_port": 23586,
    "port_name": "Tartous",
    "country_code": "sy",
    "lon": "35.88134765625",
    "lat": "34.8869784009654"
  },
  {
    "company_name": "CCL",
    "id_port": 21007,
    "port_name": "Puerto Limon",
    "country_code": "cr",
    "lon": "-83.036041259766",
    "lat": "9.9968196677133"
  },
  {
    "company_name": "CCL",
    "id_port": 22787,
    "port_name": "Veracruz",
    "country_code": "mx",
    "lon": "-96.1333333333",
    "lat": "19.2"
  },
  {
    "company_name": "CCL",
    "id_port": 3012,
    "port_name": "Alexandria",
    "country_code": "eg",
    "lon": "29.895505778028",
    "lat": "31.19919276224"
  },
  {
    "company_name": "CCL",
    "id_port": 22754,
    "port_name": "Altamira",
    "country_code": "mx",
    "lon": "-97.864151000977",
    "lat": "22.482055485937"
  },
  {
    "company_name": "CCL",
    "id_port": 3916,
    "port_name": "Valencia",
    "country_code": "es",
    "lon": "-0.33027648925781",
    "lat": "39.451070047087"
  },
  {
    "company_name": "CCL",
    "id_port": 20991,
    "port_name": "Barranquilla",
    "country_code": "co",
    "lon": "-74.7647094726565",
    "lat": "10.9750182526022"
  },
  {
    "company_name": "CCL",
    "id_port": 23082,
    "port_name": "Cristobal",
    "country_code": "pa",
    "lon": "-79.8980712890625",
    "lat": "9.3411977307061"
  },
  {
    "company_name": "CCL",
    "id_port": 27621,
    "port_name": "Halifax",
    "country_code": "ca",
    "lon": "-63.573875777831",
    "lat": "44.62581477586"
  },
  {
    "company_name": "CCL",
    "id_port": 20122,
    "port_name": "Buenos Aires",
    "country_code": "ar",
    "lon": "-58.36666666666",
    "lat": "-34.594638889878"
  },
  {
    "company_name": "CCL",
    "id_port": 12543,
    "port_name": "Izmir",
    "country_code": "tr",
    "lon": "27.051086425781",
    "lat": "38.373800706398"
  },
  {
    "company_name": "CCL",
    "id_port": 21243,
    "port_name": "Oran",
    "country_code": "dz",
    "lon": "-0.649999999999998",
    "lat": "35.7166666667"
  },
  {
    "company_name": "CCL",
    "id_port": 20337,
    "port_name": "Paranagua",
    "country_code": "br",
    "lon": "-48.507385253906",
    "lat": "-25.554053711007"
  },
  {
    "company_name": "CCL",
    "id_port": 20346,
    "port_name": "Rio Grande",
    "country_code": "br",
    "lon": "-52.086181640625",
    "lat": "-32.0467370341335"
  },
  {
    "company_name": "CCL",
    "id_port": 20347,
    "port_name": "Salvador",
    "country_code": "br",
    "lon": "-38.5015869140625",
    "lat": "-12.9711315814015"
  },
  {
    "company_name": "CCL",
    "id_port": 20506,
    "port_name": "Montreal",
    "country_code": "ca",
    "lon": "-73.559285227491",
    "lat": "45.514195857806"
  },
  {
    "company_name": "CCL",
    "id_port": 9609,
    "port_name": "Salerno",
    "country_code": "it",
    "lon": "14.766822814941",
    "lat": "40.676301324617"
  },
  {
    "company_name": "CCL",
    "id_port": 21223,
    "port_name": "Rio Haina",
    "country_code": "do",
    "lon": "-69.987030029297",
    "lat": "18.42626514258"
  },
  {
    "company_name": "CCL",
    "id_port": 23306,
    "port_name": "Asuncion",
    "country_code": "py",
    "lon": "-57.65625",
    "lat": "-25.2986566391796"
  },
  {
    "company_name": "CCL",
    "id_port": 20994,
    "port_name": "Cartagena",
    "country_code": "co",
    "lon": "-75.5200195312502",
    "lat": "10.4025285764627"
  },
  {
    "company_name": "CCL",
    "id_port": 9793,
    "port_name": "Vado Ligure",
    "country_code": "it",
    "lon": "8.4378433227539",
    "lat": "44.269233877388"
  },
  {
    "company_name": "CCL",
    "id_port": 9767,
    "port_name": "Trieste",
    "country_code": "it",
    "lon": "13.773345947266",
    "lat": "45.650959976547"
  },
  {
    "company_name": "CCL",
    "id_port": 19792,
    "port_name": "Puerto Cabello",
    "country_code": "ve",
    "lon": "-68.008426920606",
    "lat": "10.478607009683"
  },
  {
    "company_name": "CCL",
    "id_port": 32,
    "port_name": "Pecem",
    "country_code": "br",
    "lon": "-38.845232910156",
    "lat": "-3.5714715610497"
  },
  {
    "company_name": "CCL",
    "id_port": 19716,
    "port_name": "Montevideo",
    "country_code": "uy",
    "lon": "-56.196067301466",
    "lat": "-34.906757565188"
  },
  {
    "company_name": "CCL",
    "id_port": 11862,
    "port_name": "Lisboa",
    "country_code": "pt",
    "lon": "-9.16136067708",
    "lat": "38.714523618067"
  },
  {
    "company_name": "CCL",
    "id_port": 20619,
    "port_name": "Toronto",
    "country_code": "ca",
    "lon": "-79.363861083984",
    "lat": "43.650208289835"
  },
  {
    "company_name": "SEOUL LINE",
    "id_port": 10392,
    "port_name": "Ulsan",
    "country_code": "kr",
    "lon": "129.429931640625",
    "lat": "35.4966259985056"
  },
  {
    "company_name": "SEOUL LINE",
    "id_port": 10350,
    "port_name": "Incheon",
    "country_code": "kr",
    "lon": "126.62078587305",
    "lat": "37.480608879947"
  },
  {
    "company_name": "SEOUL LINE",
    "id_port": 10387,
    "port_name": "Tonghae",
    "country_code": "kr",
    "lon": "129.12802734375",
    "lat": "37.5"
  },
  {
    "company_name": "SEOUL LINE",
    "id_port": 10398,
    "port_name": "Yosu",
    "country_code": "kr",
    "lon": "127.70586751269",
    "lat": "34.724304136055"
  },
  {
    "company_name": "SEOUL LINE",
    "id_port": 22629,
    "port_name": "Daesan",
    "country_code": "kr",
    "lon": "126.35274658203",
    "lat": "36.991574591179"
  },
  {
    "company_name": "SEOUL LINE",
    "id_port": 27412,
    "port_name": "Pyungtaek",
    "country_code": "kr",
    "lon": "126.97640380859",
    "lat": "36.9087850923"
  },
  {
    "company_name": "SEOUL LINE",
    "id_port": 10356,
    "port_name": "Koje",
    "country_code": "kr",
    "lon": "128.71719360351",
    "lat": "34.810473389308"
  },
  {
    "company_name": "ATLANTICARGO",
    "id_port": 15786,
    "port_name": "Los Angeles",
    "country_code": "us",
    "lon": "-118.283333333",
    "lat": "33.7166666667"
  },
  {
    "company_name": "ATLANTICARGO",
    "id_port": 16459,
    "port_name": "Mobile",
    "country_code": "us",
    "lon": "-88.0333333333",
    "lat": "30.6666666667"
  },
  {
    "company_name": "ATLANTICARGO",
    "id_port": 11175,
    "port_name": "Rotterdam",
    "country_code": "nl",
    "lon": "4.4424468994141",
    "lat": "51.904382682993"
  },
  {
    "company_name": "ATLANTICARGO",
    "id_port": 16967,
    "port_name": "Oakland",
    "country_code": "us",
    "lon": "-122.29210357666",
    "lat": "37.831435218783"
  },
  {
    "company_name": "ATLANTICARGO",
    "id_port": 7593,
    "port_name": "Tilbury",
    "country_code": "gb",
    "lon": "0.36766560872366",
    "lat": "51.452528695843"
  },
  {
    "company_name": "ATLANTICARGO",
    "id_port": 11279,
    "port_name": "Vlissingen",
    "country_code": "nl",
    "lon": "3.5733032226562",
    "lat": "51.442128407563"
  },
  {
    "company_name": "ATLANTICARGO",
    "id_port": 518,
    "port_name": "Antwerpen",
    "country_code": "be",
    "lon": "4.3828959147469",
    "lat": "51.20236700208"
  },
  {
    "company_name": "ATLANTICARGO",
    "id_port": 13792,
    "port_name": "Charleston",
    "country_code": "us",
    "lon": "-79.928183491991",
    "lat": "32.776117047443"
  },
  {
    "company_name": "ATLANTICARGO",
    "id_port": 1228,
    "port_name": "Bremen",
    "country_code": "de",
    "lon": "8.7954139709473",
    "lat": "53.07532734181"
  },
  {
    "company_name": "ATLANTICARGO",
    "id_port": 15332,
    "port_name": "Houston",
    "country_code": "us",
    "lon": "-95.2871564229",
    "lat": "29.745752378204"
  },
  {
    "company_name": "SAFMARINE",
    "id_port": 21813,
    "port_name": "Banjul",
    "country_code": "gm",
    "lon": "-16.5666666667",
    "lat": "13.45"
  },
  {
    "company_name": "SAFMARINE",
    "id_port": 3190,
    "port_name": "Barcelona",
    "country_code": "es",
    "lon": "2.16666666667",
    "lat": "41.35"
  },
  {
    "company_name": "SAFMARINE",
    "id_port": 8955,
    "port_name": "Cagliari",
    "country_code": "it",
    "lon": "9.11666666667",
    "lat": "39.2166666667"
  },
  {
    "company_name": "SAFMARINE",
    "id_port": 10416,
    "port_name": "Colombo",
    "country_code": "lk",
    "lon": "79.8486328124997",
    "lat": "6.93082874954599"
  },
  {
    "company_name": "SAFMARINE",
    "id_port": 567,
    "port_name": "Dalian",
    "country_code": "cn",
    "lon": "121.65",
    "lat": "38.9166666667"
  },
  {
    "company_name": "SAFMARINE",
    "id_port": 19958,
    "port_name": "Durban",
    "country_code": "za",
    "lon": "31.0166666667",
    "lat": "-29.8666666667"
  },
  {
    "company_name": "SAFMARINE",
    "id_port": 19960,
    "port_name": "East London",
    "country_code": "za",
    "lon": "27.9",
    "lat": "-33.0166666667"
  },
  {
    "company_name": "SAFMARINE",
    "id_port": 3245,
    "port_name": "Cadiz",
    "country_code": "es",
    "lon": "-6.2814331054688",
    "lat": "36.522594749434"
  },
  {
    "company_name": "SAFMARINE",
    "id_port": 1241,
    "port_name": "Bremerhaven",
    "country_code": "de",
    "lon": "8.5755157470703",
    "lat": "53.542777688366"
  },
  {
    "company_name": "SAFMARINE",
    "id_port": 10413,
    "port_name": "Beirut",
    "country_code": "lb",
    "lon": "35.486267089844",
    "lat": "33.890880725099"
  },
  {
    "company_name": "SAFMARINE",
    "id_port": 4394,
    "port_name": "Dunkerque",
    "country_code": "fr",
    "lon": "2.3761367797852",
    "lat": "51.044779683718"
  },
  {
    "company_name": "SAFMARINE",
    "id_port": 12788,
    "port_name": "Dar Es Salaam",
    "country_code": "tz",
    "lon": "39.284519449903",
    "lat": "-6.7825758750397"
  },
  {
    "company_name": "SAFMARINE",
    "id_port": 12107,
    "port_name": "Gotthenburg",
    "country_code": "se",
    "lon": "11.984710693359",
    "lat": "57.718758379513"
  },
  {
    "company_name": "SAFMARINE",
    "id_port": 506,
    "port_name": "Dubai",
    "country_code": "ae",
    "lon": "55.287453206347",
    "lat": "25.274738811131"
  },
  {
    "company_name": "SAFMARINE",
    "id_port": 2999,
    "port_name": "Djibouti",
    "country_code": "dj",
    "lon": "43.078214518262",
    "lat": "11.54618514526"
  },
  {
    "company_name": "SAFMARINE",
    "id_port": 10292,
    "port_name": "Kobe",
    "country_code": "jp",
    "lon": "135.183333333",
    "lat": "34.6666666667"
  },
  {
    "company_name": "SAFMARINE",
    "id_port": 20113,
    "port_name": "Lobito",
    "country_code": "ao",
    "lon": "13.5406494140625",
    "lat": "-12.3598663672756"
  },
  {
    "company_name": "SAFMARINE",
    "id_port": 15786,
    "port_name": "Los Angeles",
    "country_code": "us",
    "lon": "-118.283333333",
    "lat": "33.7166666667"
  },
  {
    "company_name": "SAFMARINE",
    "id_port": 3082,
    "port_name": "Malaga",
    "country_code": "es",
    "lon": "-4.42474365234379",
    "lat": "36.7107875949562"
  },
  {
    "company_name": "SAFMARINE",
    "id_port": 26475,
    "port_name": "Matadi",
    "country_code": "cd",
    "lon": "13.46923828125",
    "lat": "-5.82620857958721"
  },
  {
    "company_name": "SAFMARINE",
    "id_port": 1650,
    "port_name": "Hamburg",
    "country_code": "de",
    "lon": "9.9694061279297",
    "lat": "53.547719720805"
  },
  {
    "company_name": "SAFMARINE",
    "id_port": 508,
    "port_name": "Jebel Ali",
    "country_code": "ae",
    "lon": "55.051803588867",
    "lat": "25.019494061392"
  },
  {
    "company_name": "SAFMARINE",
    "id_port": 22314,
    "port_name": "Kingston",
    "country_code": "jm",
    "lon": "-76.826466878222",
    "lat": "17.989864216254"
  },
  {
    "company_name": "SAFMARINE",
    "id_port": 27613,
    "port_name": "Melbourne",
    "country_code": "au",
    "lon": "144.94416351318",
    "lat": "-37.839716509514"
  },
  {
    "company_name": "SAFMARINE",
    "id_port": 8157,
    "port_name": "Hong Kong",
    "country_code": "hk",
    "lon": "114.17009353638",
    "lat": "22.294786854677"
  },
  {
    "company_name": "SAFMARINE",
    "id_port": 12541,
    "port_name": "Istanbul",
    "country_code": "tr",
    "lon": "28.973220825195",
    "lat": "41.006784452657"
  },
  {
    "company_name": "SAFMARINE",
    "id_port": 12776,
    "port_name": "Kaohsiung",
    "country_code": "tw",
    "lon": "120.27197265625",
    "lat": "22.642017983609"
  },
  {
    "company_name": "SAFMARINE",
    "id_port": 9696,
    "port_name": "La Spezia",
    "country_code": "it",
    "lon": "9.8218475341796",
    "lat": "44.098086480833"
  },
  {
    "company_name": "SAFMARINE",
    "id_port": 19904,
    "port_name": "Hodeidah",
    "country_code": "ye",
    "lon": "42.959289550781",
    "lat": "14.783424772789"
  },
  {
    "company_name": "SAFMARINE",
    "id_port": 19987,
    "port_name": "Port Elizabeth",
    "country_code": "za",
    "lon": "25.6063842773437",
    "lat": "-33.9265642390802"
  },
  {
    "company_name": "SAFMARINE",
    "id_port": 3027,
    "port_name": "Port Said",
    "country_code": "eg",
    "lon": "32.2860717773437",
    "lat": "31.2653126215176"
  },
  {
    "company_name": "SAFMARINE",
    "id_port": 27618,
    "port_name": "Santos",
    "country_code": "br",
    "lon": "-46.320786539747",
    "lat": "-23.973773587662"
  },
  {
    "company_name": "SAFMARINE",
    "id_port": 20344,
    "port_name": "Rio De Jan Eiro",
    "country_code": "br",
    "lon": "-43.2",
    "lat": "-22.9"
  },
  {
    "company_name": "SAFMARINE",
    "id_port": 513,
    "port_name": "Sydney",
    "country_code": "au",
    "lon": "151.182861328125",
    "lat": "-33.8696440161399"
  },
  {
    "company_name": "SAFMARINE",
    "id_port": 17252,
    "port_name": "Philadelphia",
    "country_code": "us",
    "lon": "-75.188553492262",
    "lat": "39.885289752385"
  },
  {
    "company_name": "SAFMARINE",
    "id_port": 18471,
    "port_name": "Tacoma",
    "country_code": "us",
    "lon": "-122.46254679395",
    "lat": "47.272483201384"
  },
  {
    "company_name": "SAFMARINE",
    "id_port": 5502,
    "port_name": "Rouen",
    "country_code": "fr",
    "lon": "1.0567474365234",
    "lat": "49.436819558091"
  },
  {
    "company_name": "SAFMARINE",
    "id_port": 12103,
    "port_name": "Port Sudan",
    "country_code": "sd",
    "lon": "37.225764719679",
    "lat": "19.61141139184"
  },
  {
    "company_name": "SAFMARINE",
    "id_port": 16326,
    "port_name": "Miami",
    "country_code": "us",
    "lon": "-80.189669291212",
    "lat": "25.775941908234"
  },
  {
    "company_name": "SAFMARINE",
    "id_port": 4683,
    "port_name": "Le Havre",
    "country_code": "fr",
    "lon": "0.10705362955764",
    "lat": "49.485997674824"
  },
  {
    "company_name": "SAFMARINE",
    "id_port": 10327,
    "port_name": "Mombasa",
    "country_code": "ke",
    "lon": "39.666479492187",
    "lat": "-4.0678080049342"
  },
  {
    "company_name": "SAFMARINE",
    "id_port": 10492,
    "port_name": "Port Louis",
    "country_code": "mu",
    "lon": "57.516292317675",
    "lat": "-20.143647992171"
  },
  {
    "company_name": "SAFMARINE",
    "id_port": 16849,
    "port_name": "Norfolk",
    "country_code": "us",
    "lon": "-76.337453206347",
    "lat": "36.852747247875"
  },
  {
    "company_name": "SAFMARINE",
    "id_port": 11175,
    "port_name": "Rotterdam",
    "country_code": "nl",
    "lon": "4.4424468994141",
    "lat": "51.904382682993"
  },
  {
    "company_name": "SAFMARINE",
    "id_port": 20356,
    "port_name": "Southampton",
    "country_code": "gb",
    "lon": "-1.3752807617187",
    "lat": "50.893936895358"
  },
  {
    "company_name": "SAFMARINE",
    "id_port": 10113,
    "port_name": "Nagoya",
    "country_code": "jp",
    "lon": "136.85430704786",
    "lat": "35.074342539439"
  },
  {
    "company_name": "SAFMARINE",
    "id_port": 21794,
    "port_name": "Tema",
    "country_code": "gh",
    "lon": "0.0166666666667",
    "lat": "5.63333333333"
  },
  {
    "company_name": "SAFMARINE",
    "id_port": 3903,
    "port_name": "Vigo",
    "country_code": "es",
    "lon": "-8.7044321695996",
    "lat": "42.242992226908"
  },
  {
    "company_name": "SAFMARINE",
    "id_port": 674,
    "port_name": "Ningbo",
    "country_code": "cn",
    "lon": "121.55939846039",
    "lat": "29.871876716293"
  },
  {
    "company_name": "SAFMARINE",
    "id_port": 3012,
    "port_name": "Alexandria",
    "country_code": "eg",
    "lon": "29.895505778028",
    "lat": "31.19919276224"
  },
  {
    "company_name": "SAFMARINE",
    "id_port": 27620,
    "port_name": "Vitoria",
    "country_code": "br",
    "lon": "-40.293507893847",
    "lat": "-20.343785616967"
  },
  {
    "company_name": "SAFMARINE",
    "id_port": 3916,
    "port_name": "Valencia",
    "country_code": "es",
    "lon": "-0.33027648925781",
    "lat": "39.451070047087"
  },
  {
    "company_name": "SAFMARINE",
    "id_port": 21140,
    "port_name": "Aarhus",
    "country_code": "dk",
    "lon": "10.213508605957",
    "lat": "56.156180944575"
  },
  {
    "company_name": "SAFMARINE",
    "id_port": 20628,
    "port_name": "Vancouver",
    "country_code": "ca",
    "lon": "-123.14884185791",
    "lat": "49.308213623065"
  },
  {
    "company_name": "SAFMARINE",
    "id_port": 20112,
    "port_name": "Cabinda",
    "country_code": "ao",
    "lon": "12.187453206347",
    "lat": "-5.5561508076314"
  },
  {
    "company_name": "SAFMARINE",
    "id_port": 22871,
    "port_name": "Walvis Bay",
    "country_code": "na",
    "lon": "14.500579833984",
    "lat": "-22.950255887413"
  },
  {
    "company_name": "SAFMARINE",
    "id_port": 12816,
    "port_name": "Zanzibar",
    "country_code": "tz",
    "lon": "39.188575744629",
    "lat": "-6.1620663647935"
  },
  {
    "company_name": "SAFMARINE",
    "id_port": 10319,
    "port_name": "Yokohama",
    "country_code": "jp",
    "lon": "139.6345194502",
    "lat": "35.457550958643"
  },
  {
    "company_name": "SAFMARINE",
    "id_port": 23078,
    "port_name": "Balboa",
    "country_code": "pa",
    "lon": "-79.5547485351561",
    "lat": "8.93961720816279"
  },
  {
    "company_name": "SAFMARINE",
    "id_port": 21900,
    "port_name": "Bissau",
    "country_code": "gw",
    "lon": "-15.5978393554688",
    "lat": "11.8665953984549"
  },
  {
    "company_name": "SAFMARINE",
    "id_port": 26474,
    "port_name": "Boma",
    "country_code": "cd",
    "lon": "13.05",
    "lat": "-5.84999999999998"
  },
  {
    "company_name": "SAFMARINE",
    "id_port": 20301,
    "port_name": "Cotonou",
    "country_code": "bj",
    "lon": "2.43333333333",
    "lat": "6.35"
  },
  {
    "company_name": "SAFMARINE",
    "id_port": 13655,
    "port_name": "Camden",
    "country_code": "us",
    "lon": "-75.13221753435",
    "lat": "39.932872631848"
  },
  {
    "company_name": "SAFMARINE",
    "id_port": 5944,
    "port_name": "Bristol",
    "country_code": "gb",
    "lon": "-2.589559682207",
    "lat": "51.454278956107"
  },
  {
    "company_name": "SAFMARINE",
    "id_port": 23482,
    "port_name": "Freetown",
    "country_code": "sl",
    "lon": "-13.204837544726",
    "lat": "8.4891341932903"
  },
  {
    "company_name": "SAFMARINE",
    "id_port": 21814,
    "port_name": "Conakry",
    "country_code": "gn",
    "lon": "-13.715293375684",
    "lat": "9.5105718520919"
  },
  {
    "company_name": "SAFMARINE",
    "id_port": 27621,
    "port_name": "Halifax",
    "country_code": "ca",
    "lon": "-63.573875777831",
    "lat": "44.62581477586"
  },
  {
    "company_name": "SAFMARINE",
    "id_port": 9207,
    "port_name": "Gioia Tauro",
    "country_code": "it",
    "lon": "15.893133544922",
    "lat": "38.424726878542"
  },
  {
    "company_name": "SAFMARINE",
    "id_port": 20122,
    "port_name": "Buenos Aires",
    "country_code": "ar",
    "lon": "-58.36666666666",
    "lat": "-34.594638889878"
  },
  {
    "company_name": "SAFMARINE",
    "id_port": 20712,
    "port_name": "Douala",
    "country_code": "cm",
    "lon": "9.6955057779982",
    "lat": "4.0472602721064"
  },
  {
    "company_name": "SAFMARINE",
    "id_port": 21819,
    "port_name": "Bata",
    "country_code": "gq",
    "lon": "9.7539326985643",
    "lat": "1.8374510927448"
  },
  {
    "company_name": "SAFMARINE",
    "id_port": 22858,
    "port_name": "Beira",
    "country_code": "mz",
    "lon": "34.835393269823",
    "lat": "-19.8333333333"
  },
  {
    "company_name": "SAFMARINE",
    "id_port": 12051,
    "port_name": "Dammam",
    "country_code": "sa",
    "lon": "50.103869628906",
    "lat": "26.450829276756"
  },
  {
    "company_name": "SAFMARINE",
    "id_port": 23027,
    "port_name": "Auckland",
    "country_code": "nz",
    "lon": "174.76807098389",
    "lat": "-36.846153687114"
  },
  {
    "company_name": "SAFMARINE",
    "id_port": 20324,
    "port_name": "Itajai",
    "country_code": "br",
    "lon": "-48.65",
    "lat": "-26.9"
  },
  {
    "company_name": "SAFMARINE",
    "id_port": 10353,
    "port_name": "Kwangyang",
    "country_code": "kr",
    "lon": "127.592468261719",
    "lat": "34.9454528498966"
  },
  {
    "company_name": "SAFMARINE",
    "id_port": 12248,
    "port_name": "Laem Chabang",
    "country_code": "th",
    "lon": "100.883333333",
    "lat": "13.0833333333"
  },
  {
    "company_name": "SAFMARINE",
    "id_port": 12543,
    "port_name": "Izmir",
    "country_code": "tr",
    "lon": "27.051086425781",
    "lat": "38.373800706398"
  },
  {
    "company_name": "SAFMARINE",
    "id_port": 23491,
    "port_name": "Berbera",
    "country_code": "so",
    "lon": "45.008239746094",
    "lat": "10.418764497127"
  },
  {
    "company_name": "SAFMARINE",
    "id_port": 12061,
    "port_name": "Jeddah",
    "country_code": "sa",
    "lon": "39.18863932295",
    "lat": "21.492224957667"
  },
  {
    "company_name": "SAFMARINE",
    "id_port": 20114,
    "port_name": "Luanda",
    "country_code": "ao",
    "lon": "13.2550048828125",
    "lat": "-8.80817500815671"
  },
  {
    "company_name": "SAFMARINE",
    "id_port": 22862,
    "port_name": "Maputo",
    "country_code": "mz",
    "lon": "32.5666666667",
    "lat": "-25.9666666667"
  },
  {
    "company_name": "SAFMARINE",
    "id_port": 22682,
    "port_name": "Monrovia",
    "country_code": "lr",
    "lon": "-10.7940673828125",
    "lat": "6.3028867529704"
  },
  {
    "company_name": "SAFMARINE",
    "id_port": 22742,
    "port_name": "Nouadhibou",
    "country_code": "mr",
    "lon": "-17.05",
    "lat": "20.9"
  },
  {
    "company_name": "SAFMARINE",
    "id_port": 16569,
    "port_name": "New Orleans",
    "country_code": "us",
    "lon": "-90.063061777784",
    "lat": "29.95"
  },
  {
    "company_name": "SAFMARINE",
    "id_port": 27738,
    "port_name": "Onne",
    "country_code": "ng",
    "lon": "7.1584972381593",
    "lat": "4.6527375363696"
  },
  {
    "company_name": "SAFMARINE",
    "id_port": 23590,
    "port_name": "Lome",
    "country_code": "tg",
    "lon": "1.2100804646776",
    "lat": "6.1168883241653"
  },
  {
    "company_name": "SAFMARINE",
    "id_port": 20337,
    "port_name": "Paranagua",
    "country_code": "br",
    "lon": "-48.507385253906",
    "lat": "-25.554053711007"
  },
  {
    "company_name": "SAFMARINE",
    "id_port": 22743,
    "port_name": "Nouakchott",
    "country_code": "mr",
    "lon": "-16.000374348925",
    "lat": "18.043779665272"
  },
  {
    "company_name": "SAFMARINE",
    "id_port": 21821,
    "port_name": "Malabo",
    "country_code": "gq",
    "lon": "8.7847066243456",
    "lat": "3.7515929667017"
  },
  {
    "company_name": "SAFMARINE",
    "id_port": 27065,
    "port_name": "Luba",
    "country_code": "gq",
    "lon": "8.5335205078125",
    "lat": "3.4570711713846"
  },
  {
    "company_name": "SAFMARINE",
    "id_port": 21505,
    "port_name": "Libreville",
    "country_code": "ga",
    "lon": "9.5007705688477",
    "lat": "0.28848970426462"
  },
  {
    "company_name": "SAFMARINE",
    "id_port": 23042,
    "port_name": "Napier",
    "country_code": "nz",
    "lon": "176.86173502637",
    "lat": "-39.4666666667"
  },
  {
    "company_name": "SAFMARINE",
    "id_port": 22608,
    "port_name": "Mutsamudu",
    "country_code": "km",
    "lon": "44.410986328125",
    "lat": "-12.16935154329"
  },
  {
    "company_name": "SAFMARINE",
    "id_port": 16967,
    "port_name": "Oakland",
    "country_code": "us",
    "lon": "-122.29210357666",
    "lat": "37.831435218783"
  },
  {
    "company_name": "SAFMARINE",
    "id_port": 22866,
    "port_name": "Nacala",
    "country_code": "mz",
    "lon": "40.691385904981",
    "lat": "-14.512062739261"
  },
  {
    "company_name": "SAFMARINE",
    "id_port": 21508,
    "port_name": "Port Gentil",
    "country_code": "ga",
    "lon": "8.76708984374996",
    "lat": "-0.70447807673053"
  },
  {
    "company_name": "SAFMARINE",
    "id_port": 20346,
    "port_name": "Rio Grande",
    "country_code": "br",
    "lon": "-52.086181640625",
    "lat": "-32.0467370341335"
  },
  {
    "company_name": "SAFMARINE",
    "id_port": 20347,
    "port_name": "Salvador",
    "country_code": "br",
    "lon": "-38.5015869140625",
    "lat": "-12.9711315814015"
  },
  {
    "company_name": "SAFMARINE",
    "id_port": 22711,
    "port_name": "Safi",
    "country_code": "ma",
    "lon": "-9.2230224609375",
    "lat": "32.256696042577"
  },
  {
    "company_name": "SAFMARINE",
    "id_port": 11398,
    "port_name": "Salalah",
    "country_code": "om",
    "lon": "54.1",
    "lat": "16.998768791522"
  },
  {
    "company_name": "SAFMARINE",
    "id_port": 20506,
    "port_name": "Montreal",
    "country_code": "ca",
    "lon": "-73.559285227491",
    "lat": "45.514195857806"
  },
  {
    "company_name": "SAFMARINE",
    "id_port": 20139,
    "port_name": "Puerto Madryn",
    "country_code": "ar",
    "lon": "-65.055541992188",
    "lat": "-42.743431201514"
  },
  {
    "company_name": "SAFMARINE",
    "id_port": 7589,
    "port_name": "Thamesport",
    "country_code": "gb",
    "lon": "0.7",
    "lat": "51.4333333333"
  },
  {
    "company_name": "SAFMARINE",
    "id_port": 7593,
    "port_name": "Tilbury",
    "country_code": "gb",
    "lon": "0.36766560872366",
    "lat": "51.452528695843"
  },
  {
    "company_name": "SAFMARINE",
    "id_port": 22876,
    "port_name": "Apapa",
    "country_code": "ng",
    "lon": "3.392446899414",
    "lat": "6.4486353997145"
  },
  {
    "company_name": "SAFMARINE",
    "id_port": 21793,
    "port_name": "Takoradi",
    "country_code": "gh",
    "lon": "-1.7197875976562",
    "lat": "4.9455883591624"
  },
  {
    "company_name": "SAFMARINE",
    "id_port": 22328,
    "port_name": "Aqaba",
    "country_code": "jo",
    "lon": "35.005187988281",
    "lat": "29.535338960607"
  },
  {
    "company_name": "SAFMARINE",
    "id_port": 23054,
    "port_name": "Tauranga",
    "country_code": "nz",
    "lon": "176.20530598925",
    "lat": "-37.702172664159"
  },
  {
    "company_name": "SAFMARINE",
    "id_port": 22730,
    "port_name": "Toamasina",
    "country_code": "mg",
    "lon": "49.411173502637",
    "lat": "-18.160439383331"
  },
  {
    "company_name": "SAFMARINE",
    "id_port": 22851,
    "port_name": "Tanjung Pelepas",
    "country_code": "my",
    "lon": "103.5483638525",
    "lat": "1.355896533307"
  },
  {
    "company_name": "SAFMARINE",
    "id_port": 13180,
    "port_name": "Baltimore",
    "country_code": "us",
    "lon": "-76.595649719238",
    "lat": "39.281254757575"
  },
  {
    "company_name": "SAFMARINE",
    "id_port": 24653,
    "port_name": "Guam",
    "country_code": "us",
    "lon": "144.656982421875",
    "lat": "13.3762147771382"
  },
  {
    "company_name": "SAFMARINE",
    "id_port": 4492,
    "port_name": "Fos Sur Mer",
    "country_code": "fr",
    "lon": "4.8877153862825",
    "lat": "43.413026638308"
  },
  {
    "company_name": "SAFMARINE",
    "id_port": 23085,
    "port_name": "Panama",
    "country_code": "pa",
    "lon": "-79.5330555556001",
    "lat": "8.95055555555999"
  },
  {
    "company_name": "SAFMARINE",
    "id_port": 23048,
    "port_name": "Port Chalmers",
    "country_code": "nz",
    "lon": "170.63957519531",
    "lat": "-45.654090799801"
  },
  {
    "company_name": "SAFMARINE",
    "id_port": 16905,
    "port_name": "North Charleston",
    "country_code": "us",
    "lon": "-79.96467590332",
    "lat": "32.860791062232"
  },
  {
    "company_name": "SAFMARINE",
    "id_port": 27355,
    "port_name": "Ishigaki",
    "country_code": "jp",
    "lon": "124.15",
    "lat": "24.333333333333"
  },
  {
    "company_name": "SAFMARINE",
    "id_port": 20656,
    "port_name": "Pointe Noire",
    "country_code": "cg",
    "lon": "11.819413248732",
    "lat": "-4.7012179542661"
  },
  {
    "company_name": "SAFMARINE",
    "id_port": 753,
    "port_name": "Xingang",
    "country_code": "cn",
    "lon": "117.74082183838",
    "lat": "38.979722222222"
  },
  {
    "company_name": "SAFMARINE",
    "id_port": 17854,
    "port_name": "Savannah",
    "country_code": "us",
    "lon": "-81.099742507934",
    "lat": "32.086579680831"
  },
  {
    "company_name": "SAFMARINE",
    "id_port": 15309,
    "port_name": "Honolulu",
    "country_code": "us",
    "lon": "-157.86632334425",
    "lat": "21.298754842146"
  },
  {
    "company_name": "SAFMARINE",
    "id_port": 16771,
    "port_name": "Newark",
    "country_code": "us",
    "lon": "-74.156195322673",
    "lat": "40.732397570928"
  },
  {
    "company_name": "SAFMARINE",
    "id_port": 14693,
    "port_name": "Freeport",
    "country_code": "us",
    "lon": "-95.311985270216",
    "lat": "28.931973112727"
  },
  {
    "company_name": "SAFMARINE",
    "id_port": 23084,
    "port_name": "Manzanillo",
    "country_code": "pa",
    "lon": "-79.602127075196",
    "lat": "9.6115949009685"
  },
  {
    "company_name": "SAFMARINE",
    "id_port": 5666,
    "port_name": "Aberdeen",
    "country_code": "gb",
    "lon": "-2.0668029785156",
    "lat": "57.108904204932"
  },
  {
    "company_name": "SAFMARINE",
    "id_port": 20175,
    "port_name": "Brisbane",
    "country_code": "au",
    "lon": "153.18314615919",
    "lat": "-27.466570653812"
  },
  {
    "company_name": "SAFMARINE",
    "id_port": 12329,
    "port_name": "Ambarli",
    "country_code": "tr",
    "lon": "28.536079915365",
    "lat": "40.994736024512"
  },
  {
    "company_name": "SAFMARINE",
    "id_port": 518,
    "port_name": "Antwerpen",
    "country_code": "be",
    "lon": "4.3828959147469",
    "lat": "51.20236700208"
  },
  {
    "company_name": "SAFMARINE",
    "id_port": 19894,
    "port_name": "Aden",
    "country_code": "ye",
    "lon": "45.005118815138",
    "lat": "12.858916315793"
  },
  {
    "company_name": "SAFMARINE",
    "id_port": 519,
    "port_name": "Zeebgrugge",
    "country_code": "be",
    "lon": "3.2172775268555",
    "lat": "51.337071355836"
  },
  {
    "company_name": "SAFMARINE",
    "id_port": 13792,
    "port_name": "Charleston",
    "country_code": "us",
    "lon": "-79.928183491991",
    "lat": "32.776117047443"
  },
  {
    "company_name": "SAFMARINE",
    "id_port": 27079,
    "port_name": "Shekou",
    "country_code": "cn",
    "lon": "113.90213012695",
    "lat": "22.519474062394"
  },
  {
    "company_name": "SAFMARINE",
    "id_port": 706,
    "port_name": "Shanghai",
    "country_code": "cn",
    "lon": "121.49711608887",
    "lat": "31.400089849043"
  },
  {
    "company_name": "SAFMARINE",
    "id_port": 12520,
    "port_name": "Haydarpasa",
    "country_code": "tr",
    "lon": "29.042946370409",
    "lat": "40.982685393946"
  },
  {
    "company_name": "SAFMARINE",
    "id_port": 20348,
    "port_name": "Sepetiba",
    "country_code": "br",
    "lon": "-43.830586751269",
    "lat": "-22.920685297406"
  },
  {
    "company_name": "SAFMARINE",
    "id_port": 32,
    "port_name": "Pecem",
    "country_code": "br",
    "lon": "-38.845232910156",
    "lat": "-3.5714715610497"
  },
  {
    "company_name": "SAFMARINE",
    "id_port": 19716,
    "port_name": "Montevideo",
    "country_code": "uy",
    "lon": "-56.196067301466",
    "lat": "-34.906757565188"
  },
  {
    "company_name": "SAFMARINE",
    "id_port": 3123,
    "port_name": "Algeciras",
    "country_code": "es",
    "lon": "-5.4381398518847",
    "lat": "36.141096889493"
  },
  {
    "company_name": "SAFMARINE",
    "id_port": 23044,
    "port_name": "New Plymouth",
    "country_code": "nz",
    "lon": "174.09759521484",
    "lat": "-39.108668933424"
  },
  {
    "company_name": "SAFMARINE",
    "id_port": 23055,
    "port_name": "Timaru",
    "country_code": "nz",
    "lon": "171.25",
    "lat": "-44.337170851931"
  },
  {
    "company_name": "SAFMARINE",
    "id_port": 9952,
    "port_name": "Hakata",
    "country_code": "jp",
    "lon": "130.37578023241",
    "lat": "33.601143835671"
  },
  {
    "company_name": "SAFMARINE",
    "id_port": 23508,
    "port_name": "Sao Tome",
    "country_code": "st",
    "lon": "6.7236328125",
    "lat": "0.33592601589392"
  },
  {
    "company_name": "SAFMARINE",
    "id_port": 27077,
    "port_name": "Soyo",
    "country_code": "ao",
    "lon": "12.291073608399",
    "lat": "-6.1057427722804"
  },
  {
    "company_name": "SAFMARINE",
    "id_port": 22869,
    "port_name": "Luderitz",
    "country_code": "na",
    "lon": "15.2490234375",
    "lat": "-26.604386072693"
  },
  {
    "company_name": "SAFMARINE",
    "id_port": 19956,
    "port_name": "Cape Town",
    "country_code": "za",
    "lon": "18.430981636047",
    "lat": "-33.945701864914"
  },
  {
    "company_name": "SAFMARINE",
    "id_port": 11859,
    "port_name": "Leixoes",
    "country_code": "pt",
    "lon": "-8.7059783935547",
    "lat": "41.20106607302"
  },
  {
    "company_name": "SAFMARINE",
    "id_port": 11862,
    "port_name": "Lisboa",
    "country_code": "pt",
    "lon": "-9.16136067708",
    "lat": "38.714523618067"
  },
  {
    "company_name": "SAFMARINE",
    "id_port": 14350,
    "port_name": "Dutch Harbor",
    "country_code": "us",
    "lon": "-166.65131123827",
    "lat": "53.92394536953"
  },
  {
    "company_name": "SAFMARINE",
    "id_port": 15332,
    "port_name": "Houston",
    "country_code": "us",
    "lon": "-95.2871564229",
    "lat": "29.745752378204"
  },
  {
    "company_name": "SAFMARINE",
    "id_port": 20666,
    "port_name": "San Pedro",
    "country_code": "ci",
    "lon": "-6.6303995768262",
    "lat": "4.7388077415582"
  },
  {
    "company_name": "SAFMARINE",
    "id_port": 20661,
    "port_name": "Abidjan",
    "country_code": "ci",
    "lon": "-4.0131320953369",
    "lat": "5.2820523548896"
  },
  {
    "company_name": "SAFMARINE",
    "id_port": 10212,
    "port_name": "Shimizu",
    "country_code": "jp",
    "lon": "138.48592376709",
    "lat": "35.023976922197"
  },
  {
    "company_name": "SAFMARINE",
    "id_port": 778,
    "port_name": "Xiamen",
    "country_code": "cn",
    "lon": "118.07684898376",
    "lat": "24.478517973495"
  },
  {
    "company_name": "ADMIRAL",
    "id_port": 8534,
    "port_name": "Ashdod",
    "country_code": "il",
    "lon": "34.666292317675",
    "lat": "31.8166666667"
  },
  {
    "company_name": "ADMIRAL",
    "id_port": 12491,
    "port_name": "Gemlik",
    "country_code": "tr",
    "lon": "29.153371175097",
    "lat": "40.436529274414"
  },
  {
    "company_name": "ADMIRAL",
    "id_port": 12622,
    "port_name": "Mersin",
    "country_code": "tr",
    "lon": "34.6166666667",
    "lat": "36.793231581975"
  },
  {
    "company_name": "ADMIRAL",
    "id_port": 12541,
    "port_name": "Istanbul",
    "country_code": "tr",
    "lon": "28.973220825195",
    "lat": "41.006784452657"
  },
  {
    "company_name": "ADMIRAL",
    "id_port": 12038,
    "port_name": "Novorossiysk",
    "country_code": "ru",
    "lon": "37.781982421875",
    "lat": "44.741618624531"
  },
  {
    "company_name": "ADMIRAL",
    "id_port": 12543,
    "port_name": "Izmir",
    "country_code": "tr",
    "lon": "27.051086425781",
    "lat": "38.373800706398"
  },
  {
    "company_name": "ADMIRAL",
    "id_port": 304,
    "port_name": "Odessa",
    "country_code": "ua",
    "lon": "30.730773925781",
    "lat": "46.5"
  },
  {
    "company_name": "ALIANCA",
    "id_port": 20672,
    "port_name": "Arica",
    "country_code": "cl",
    "lon": "-70.3179931640627",
    "lat": "-18.4903447249268"
  },
  {
    "company_name": "ALIANCA",
    "id_port": 3190,
    "port_name": "Barcelona",
    "country_code": "es",
    "lon": "2.16666666667",
    "lat": "41.35"
  },
  {
    "company_name": "ALIANCA",
    "id_port": 8955,
    "port_name": "Cagliari",
    "country_code": "it",
    "lon": "9.11666666667",
    "lat": "39.2166666667"
  },
  {
    "company_name": "ALIANCA",
    "id_port": 10416,
    "port_name": "Colombo",
    "country_code": "lk",
    "lon": "79.8486328124997",
    "lat": "6.93082874954599"
  },